{"businesses": [{"id": "XsXLVWr1UZWVhKThNvNiaA", "alias": "blue-willow-\u591c\u6765\u6e58-new-york-2", "name": "Blue Willow \u591c\u6765\u6e58", "image_url": "https://s3-media2.fl.yelpcdn.com/bphoto/1E59vOqmXZHBlJe0lLBHtA/o.jpg", "is_closed": false, "url": "https://www.yelp.com/biz/blue-willow-%E5%A4%9C%E6%9D%A5%E6%B9%98-new-york-2?adjust_creative=-dNcS0Zb3UiJXBpAhH8gvw&utm_campaign=yelp_api_v3&utm_medium=api_v3_business_search&utm_source=-dNcS0Zb3UiJXBpAhH8gvw", "review_count": 973, "categories": [{"alias": "szechuan", "title": "Szechuan"}], "rating": 4.5, "coordinates": {"latitude": 40.76292, "longitude": -73.976546}, "transactions": ["delivery", "pickup"], "location": {"address1": "40 W 56th St", "address2": null, "address3": "", "city": "New York", "zip_code": "10019", "country": "US", "state": "NY", "display_address": ["40 W 56th St", "New York, NY 10019"]}, "phone": "+12122132299", "display_phone": "(212) 213-2299", "distance": 720.1010403974277}, {"id": "BNaveJmi-OUGKG9sRfrIhA", "alias": "mr-sun-new-york", "name": "Mr. Sun", "image_url": "https://s3-media2.fl.yelpcdn.com/bphoto/jswYzFLbD07Xk8dR81_mIA/o.jpg", "is_closed": false, "url": "https://www.yelp.com/biz/mr-sun-new-york?adjust_creative=-dNcS0Zb3UiJXBpAhH8gvw&utm_campaign=yelp_api_v3&utm_medium=api_v3_business_search&utm_source=-dNcS0Zb3UiJXBpAhH8gvw", "review_count": 251, "categories": [{"alias": "dimsum", "title": "Dim Sum"}, {"alias": "seafood", "title": "Seafood"}], "rating": 4.5, "coordinates": {"latitude": 40.75809, "longitude": -73.98026}, "transactions": ["delivery", "restaurant_reservation", "pickup"], "price": "$$", "location": {"address1": "48 W 48th St", "address2": "", "address3": null, "city": "New York", "zip_code": "10036", "country": "US", "state": "NY", "display_address": ["48 W 48th St", "New York, NY 10036"]}, "phone": "+17183169811", "display_phone": "(718) 316-9811", "distance": 922.4354272645517}, {"id": "iXH9H75idkSB-Eudo5ABhg", "alias": "tang-by-mr-sun-new-york", "name": "Tang By Mr. Sun", "image_url": "https://s3-media2.fl.yelpcdn.com/bphoto/qTVtuXOy6Poq72uFgNEI1w/o.jpg", "is_closed": false, "url": "https://www.yelp.com/biz/tang-by-mr-sun-new-york?adjust_creative=-dNcS0Zb3UiJXBpAhH8gvw&utm_campaign=yelp_api_v3&utm_medium=api_v3_business_search&utm_source=-dNcS0Zb3UiJXBpAhH8gvw", "review_count": 18, "categories": [{"alias": "asianfusion", "title": "Asian Fusion"}], "rating": 4.5, "coordinates": {"latitude": 40.77614, "longitude": -73.95616}, "transactions": ["restaurant_reservation"], "location": {"address1": "1442 3rd Ave", "address2": null, "address3": "", "city": "New York", "zip_code": "10028", "country": "US", "state": "NY", "display_address": ["1442 3rd Ave", "New York, NY 10028"]}, "phone": "+16465902910", "display_phone": "(646) 590-2910", "distance": 2198.400365872829}, {"id": "h0pRCiJDrCN7tm3VX5tILQ", "alias": "chili-new-york", "name": "CHILI", "image_url": "https://s3-media2.fl.yelpcdn.com/bphoto/kXEGv1n69TKeZuvkQxyKGw/o.jpg", "is_closed": false, "url": "https://www.yelp.com/biz/chili-new-york?adjust_creative=-dNcS0Zb3UiJXBpAhH8gvw&utm_campaign=yelp_api_v3&utm_medium=api_v3_business_search&utm_source=-dNcS0Zb3UiJXBpAhH8gvw", "review_count": 704, "categories": [{"alias": "szechuan", "title": "Szechuan"}, {"alias": "dimsum", "title": "Dim Sum"}, {"alias": "cocktailbars", "title": "Cocktail Bars"}], "rating": 4.5, "coordinates": {"latitude": 40.75002, "longitude": -73.98215}, "transactions": ["delivery", "pickup"], "price": "$$", "location": {"address1": "13 E 37th St", "address2": null, "address3": "", "city": "New York", "zip_code": "10016", "country": "US", "state": "NY", "display_address": ["13 E 37th St", "New York, NY 10016"]}, "phone": "+16468820666", "display_phone": "(646) 882-0666", "distance": 1458.438453805931}, {"id": "R2OiJx2vW67hLbNu4w2TqQ", "alias": "chef-guo-new-york", "name": "Chef Guo", "image_url": "https://s3-media1.fl.yelpcdn.com/bphoto/_YMV4vCXXu82Gx89guHhzA/o.jpg", "is_closed": false, "url": "https://www.yelp.com/biz/chef-guo-new-york?adjust_creative=-dNcS0Zb3UiJXBpAhH8gvw&utm_campaign=yelp_api_v3&utm_medium=api_v3_business_search&utm_source=-dNcS0Zb3UiJXBpAhH8gvw", "review_count": 1, "categories": [{"alias": "chinese", "title": "Chinese"}, {"alias": "catering", "title": "Caterers"}], "rating": 5.0, "coordinates": {"latitude": 40.75636, "longitude": -73.97177}, "transactions": [], "location": {"address1": "135 E 50th St", "address2": "", "address3": null, "city": "New York", "zip_code": "10022", "country": "US", "state": "NY", "display_address": ["135 E 50th St", "New York, NY 10022"]}, "phone": "+12128669888", "display_phone": "(212) 866-9888", "distance": 356.93554369995945}, {"id": "bVkjBJlAIwKAj9Aw1KVWjA", "alias": "dim-sum-palace-new-york-8", "name": "Dim Sum Palace", "image_url": "https://s3-media4.fl.yelpcdn.com/bphoto/5Dg8lWgTRJ0kIyv5jfqOnw/o.jpg", "is_closed": false, "url": "https://www.yelp.com/biz/dim-sum-palace-new-york-8?adjust_creative=-dNcS0Zb3UiJXBpAhH8gvw&utm_campaign=yelp_api_v3&utm_medium=api_v3_business_search&utm_source=-dNcS0Zb3UiJXBpAhH8gvw", "review_count": 1717, "categories": [{"alias": "dimsum", "title": "Dim Sum"}, {"alias": "cantonese", "title": "Cantonese"}], "rating": 4.0, "coordinates": {"latitude": 40.76015, "longitude": -73.9893699}, "transactions": ["delivery", "pickup"], "price": "$$", "location": {"address1": "334 W 46th St", "address2": null, "address3": "", "city": "New York", "zip_code": "10036", "country": "US", "state": "NY", "display_address": ["334 W 46th St", "New York, NY 10036"]}, "phone": "+16468611910", "display_phone": "(646) 861-1910", "distance": 1669.0422912231988}, {"id": "qrncvjkiKN5Z-JC06ygy6A", "alias": "hutong-new-york", "name": "Hutong New York", "image_url": "https://s3-media1.fl.yelpcdn.com/bphoto/B2TjoWb9waQRRFsSj3q-bw/o.jpg", "is_closed": false, "url": "https://www.yelp.com/biz/hutong-new-york?adjust_creative=-dNcS0Zb3UiJXBpAhH8gvw&utm_campaign=yelp_api_v3&utm_medium=api_v3_business_search&utm_source=-dNcS0Zb3UiJXBpAhH8gvw", "review_count": 536, "categories": [{"alias": "dimsum", "title": "Dim Sum"}, {"alias": "cocktailbars", "title": "Cocktail Bars"}, {"alias": "breakfast_brunch", "title": "Breakfast & Brunch"}], "rating": 3.5, "coordinates": {"latitude": 40.761551, "longitude": -73.967443}, "transactions": ["delivery", "pickup"], "price": "$$$$", "location": {"address1": "Inside Beacon Courtyard", "address2": "", "address3": "", "city": "New York", "zip_code": "10022", "country": "US", "state": "NY", "display_address": ["Inside Beacon Courtyard", "New York, NY 10022"]}, "phone": "+12127584800", "display_phone": "(212) 758-4800", "distance": 319.42323126414215}, {"id": "83zDAk03lFXkgImgkLhT9w", "alias": "chi-restaurant-and-bar-new-york", "name": "Chi Restaurant & Bar", "image_url": "https://s3-media4.fl.yelpcdn.com/bphoto/i88DTquqvXDMHv6tryKwqQ/o.jpg", "is_closed": false, "url": "https://www.yelp.com/biz/chi-restaurant-and-bar-new-york?adjust_creative=-dNcS0Zb3UiJXBpAhH8gvw&utm_campaign=yelp_api_v3&utm_medium=api_v3_business_search&utm_source=-dNcS0Zb3UiJXBpAhH8gvw", "review_count": 91, "categories": [{"alias": "bars", "title": "Bars"}, {"alias": "szechuan", "title": "Szechuan"}], "rating": 4.5, "coordinates": {"latitude": 40.75547, "longitude": -73.99439}, "transactions": ["delivery", "restaurant_reservation", "pickup"], "location": {"address1": "492 9th Ave", "address2": null, "address3": "", "city": "New York", "zip_code": "10018", "country": "US", "state": "NY", "display_address": ["492 9th Ave", "New York, NY 10018"]}, "phone": "+12129181470", "display_phone": "(212) 918-1470", "distance": 2137.457153875671}, {"id": "ojbH3wnRu050hRhkmoxRiA", "alias": "han-dynasty-new-york-8", "name": "Han Dynasty", "image_url": "https://s3-media3.fl.yelpcdn.com/bphoto/-aIQqghSAjISvaYL-9w5oA/o.jpg", "is_closed": false, "url": "https://www.yelp.com/biz/han-dynasty-new-york-8?adjust_creative=-dNcS0Zb3UiJXBpAhH8gvw&utm_campaign=yelp_api_v3&utm_medium=api_v3_business_search&utm_source=-dNcS0Zb3UiJXBpAhH8gvw", "review_count": 713, "categories": [{"alias": "szechuan", "title": "Szechuan"}], "rating": 4.0, "coordinates": {"latitude": 40.78752, "longitude": -73.97647}, "transactions": ["delivery", "pickup"], "price": "$$", "location": {"address1": "215 W 85th St", "address2": "", "address3": "", "city": "New York", "zip_code": "10024", "country": "US", "state": "NY", "display_address": ["215 W 85th St", "New York, NY 10024"]}, "phone": "+12128589060", "display_phone": "(212) 858-9060", "distance": 3204.5006858392017}, {"id": "wfhMIiMh2A2psCGONOVSlg", "alias": "han-dynasty-new-york", "name": "Han Dynasty", "image_url": "https://s3-media3.fl.yelpcdn.com/bphoto/G5jm9G3m_tquqwDm_qHoVQ/o.jpg", "is_closed": false, "url": "https://www.yelp.com/biz/han-dynasty-new-york?adjust_creative=-dNcS0Zb3UiJXBpAhH8gvw&utm_campaign=yelp_api_v3&utm_medium=api_v3_business_search&utm_source=-dNcS0Zb3UiJXBpAhH8gvw", "review_count": 1360, "categories": [{"alias": "szechuan", "title": "Szechuan"}, {"alias": "noodles", "title": "Noodles"}, {"alias": "beerbar", "title": "Beer Bar"}], "rating": 4.0, "coordinates": {"latitude": 40.732072, "longitude": -73.988074}, "transactions": ["delivery", "pickup"], "price": "$$", "location": {"address1": "90 3rd Ave", "address2": "", "address3": "", "city": "New York", "zip_code": "10003", "country": "US", "state": "NY", "display_address": ["90 3rd Ave", "New York, NY 10003"]}, "phone": "+12123908685", "display_phone": "(212) 390-8685", "distance": 3392.811937750481}, {"id": "4FD0TAxe70nb3ngk3sXF9Q", "alias": "uluh-new-york", "name": "Uluh", "image_url": "https://s3-media3.fl.yelpcdn.com/bphoto/ebgBK2Y-BCVzwEZyDmhLsg/o.jpg", "is_closed": false, "url": "https://www.yelp.com/biz/uluh-new-york?adjust_creative=-dNcS0Zb3UiJXBpAhH8gvw&utm_campaign=yelp_api_v3&utm_medium=api_v3_business_search&utm_source=-dNcS0Zb3UiJXBpAhH8gvw", "review_count": 905, "categories": [{"alias": "tea", "title": "Tea Rooms"}, {"alias": "asianfusion", "title": "Asian Fusion"}, {"alias": "szechuan", "title": "Szechuan"}], "rating": 4.5, "coordinates": {"latitude": 40.7293403, "longitude": -73.9866071}, "transactions": ["delivery", "pickup"], "price": "$$$", "location": {"address1": "152 2nd Ave", "address2": "Ste A", "address3": "", "city": "New York", "zip_code": "10003", "country": "US", "state": "NY", "display_address": ["152 2nd Ave", "Ste A", "New York, NY 10003"]}, "phone": "+19172615963", "display_phone": "(917) 261-5963", "distance": 3614.474270795037}, {"id": "0CjK3esfpFcxIopebzjFxA", "alias": "joes-shanghai-new-york-2", "name": "Joe's Shanghai", "image_url": "https://s3-media1.fl.yelpcdn.com/bphoto/gkp9bzPqrcaWIvgOJbatQw/o.jpg", "is_closed": false, "url": "https://www.yelp.com/biz/joes-shanghai-new-york-2?adjust_creative=-dNcS0Zb3UiJXBpAhH8gvw&utm_campaign=yelp_api_v3&utm_medium=api_v3_business_search&utm_source=-dNcS0Zb3UiJXBpAhH8gvw", "review_count": 7240, "categories": [{"alias": "shanghainese", "title": "Shanghainese"}, {"alias": "seafood", "title": "Seafood"}, {"alias": "noodles", "title": "Noodles"}], "rating": 4.0, "coordinates": {"latitude": 40.7156608, "longitude": -73.9967012}, "transactions": ["delivery", "pickup"], "price": "$$", "location": {"address1": "46 Bowery St", "address2": "", "address3": "", "city": "New York", "zip_code": "10013", "country": "US", "state": "NY", "display_address": ["46 Bowery St", "New York, NY 10013"]}, "phone": "+12122338888", "display_phone": "(212) 233-8888", "distance": 5351.172286292291}, {"id": "xq0cX_DgxiJMXwhmEl9kUA", "alias": "caf\u00e9-china-new-york-2", "name": "Caf\u00e9 China", "image_url": "https://s3-media1.fl.yelpcdn.com/bphoto/UhHqxEX2epOvrBFI2pgRzg/o.jpg", "is_closed": false, "url": "https://www.yelp.com/biz/caf%C3%A9-china-new-york-2?adjust_creative=-dNcS0Zb3UiJXBpAhH8gvw&utm_campaign=yelp_api_v3&utm_medium=api_v3_business_search&utm_source=-dNcS0Zb3UiJXBpAhH8gvw", "review_count": 1921, "categories": [{"alias": "szechuan", "title": "Szechuan"}], "rating": 4.0, "coordinates": {"latitude": 40.751587, "longitude": -73.985815}, "transactions": ["delivery", "pickup"], "price": "$$", "location": {"address1": "59 W 37th St", "address2": null, "address3": "", "city": "New York", "zip_code": "10018", "country": "US", "state": "NY", "display_address": ["59 W 37th St", "New York, NY 10018"]}, "phone": "+12122132810", "display_phone": "(212) 213-2810", "distance": 1588.4611891563356}, {"id": "FXhSEZfIqjMZh4hR0_8jMQ", "alias": "china-xiang-\u4e2d\u56fd\u6e58-new-york-2", "name": "China Xiang \u4e2d\u56fd\u6e58", "image_url": "https://s3-media3.fl.yelpcdn.com/bphoto/MC6-poc5wb7mP-jO7qfHHw/o.jpg", "is_closed": false, "url": "https://www.yelp.com/biz/china-xiang-%E4%B8%AD%E5%9B%BD%E6%B9%98-new-york-2?adjust_creative=-dNcS0Zb3UiJXBpAhH8gvw&utm_campaign=yelp_api_v3&utm_medium=api_v3_business_search&utm_source=-dNcS0Zb3UiJXBpAhH8gvw", "review_count": 550, "categories": [{"alias": "chinese", "title": "Chinese"}], "rating": 4.0, "coordinates": {"latitude": 40.7582902125633, "longitude": -73.9925113993899}, "transactions": ["delivery", "restaurant_reservation", "pickup"], "price": "$$", "location": {"address1": "360 W 42nd Street", "address2": "", "address3": "", "city": "New York", "zip_code": "10036", "country": "US", "state": "NY", "display_address": ["360 W 42nd Street", "New York, NY 10036"]}, "phone": "+12129676088", "display_phone": "(212) 967-6088", "distance": 1934.4345338726341}, {"id": "sRWRA4dcN_NR1JGpuRVouA", "alias": "nan-xiang-xiao-long-bao-manhattan-new-york", "name": "Nan Xiang Xiao Long Bao - Manhattan", "image_url": "https://s3-media3.fl.yelpcdn.com/bphoto/lmcpkjW6fo_uJqBnxxqk4w/o.jpg", "is_closed": false, "url": "https://www.yelp.com/biz/nan-xiang-xiao-long-bao-manhattan-new-york?adjust_creative=-dNcS0Zb3UiJXBpAhH8gvw&utm_campaign=yelp_api_v3&utm_medium=api_v3_business_search&utm_source=-dNcS0Zb3UiJXBpAhH8gvw", "review_count": 739, "categories": [{"alias": "dimsum", "title": "Dim Sum"}, {"alias": "desserts", "title": "Desserts"}, {"alias": "noodles", "title": "Noodles"}], "rating": 4.5, "coordinates": {"latitude": 40.74822527534694, "longitude": -73.9857786}, "transactions": [], "price": "$$", "location": {"address1": "24 W 33rd St", "address2": null, "address3": "", "city": "New York", "zip_code": "10001", "country": "US", "state": "NY", "display_address": ["24 W 33rd St", "New York, NY 10001"]}, "phone": "+12129703888", "display_phone": "(212) 970-3888", "distance": 1829.0610090199837}, {"id": "oowNI_aUmGEFa_VW8BFgRg", "alias": "tri-dim-shanghai-new-york-4", "name": "Tri Dim Shanghai", "image_url": "https://s3-media1.fl.yelpcdn.com/bphoto/-HycyO1XNiKGN8q28RYATg/o.jpg", "is_closed": false, "url": "https://www.yelp.com/biz/tri-dim-shanghai-new-york-4?adjust_creative=-dNcS0Zb3UiJXBpAhH8gvw&utm_campaign=yelp_api_v3&utm_medium=api_v3_business_search&utm_source=-dNcS0Zb3UiJXBpAhH8gvw", "review_count": 539, "categories": [{"alias": "shanghainese", "title": "Shanghainese"}, {"alias": "dimsum", "title": "Dim Sum"}, {"alias": "szechuan", "title": "Szechuan"}], "rating": 4.0, "coordinates": {"latitude": 40.773951, "longitude": -73.957927}, "transactions": ["delivery", "restaurant_reservation", "pickup"], "price": "$$", "location": {"address1": "1378 3rd Ave", "address2": "", "address3": null, "city": "New York", "zip_code": "10075", "country": "US", "state": "NY", "display_address": ["1378 3rd Ave", "New York, NY 10075"]}, "phone": "+12125853388", "display_phone": "(212) 585-3388", "distance": 1913.7743418150735}, {"id": "ZWP7yq9C2bhCcLkMR9BmVw", "alias": "mala-project-new-york-6", "name": "Mala Project", "image_url": "https://s3-media2.fl.yelpcdn.com/bphoto/c9rT1-fFq7kGqxX4BlkFjg/o.jpg", "is_closed": false, "url": "https://www.yelp.com/biz/mala-project-new-york-6?adjust_creative=-dNcS0Zb3UiJXBpAhH8gvw&utm_campaign=yelp_api_v3&utm_medium=api_v3_business_search&utm_source=-dNcS0Zb3UiJXBpAhH8gvw", "review_count": 86, "categories": [{"alias": "szechuan", "title": "Szechuan"}, {"alias": "hotpot", "title": "Hot Pot"}, {"alias": "seafood", "title": "Seafood"}], "rating": 4.5, "coordinates": {"latitude": 40.75714784759798, "longitude": -73.96769121739368}, "transactions": ["delivery", "pickup"], "location": {"address1": "245 East 53rd St", "address2": null, "address3": "", "city": "New York", "zip_code": "10022", "country": "US", "state": "NY", "display_address": ["245 East 53rd St", "New York, NY 10022"]}, "phone": "+12126021005", "display_phone": "(212) 602-1005", "distance": 275.57517356159894}, {"id": "0vg2Z-HPwkyVVX613j2ysg", "alias": "pengs-noodle-folk-new-york-2", "name": "Peng's Noodle Folk", "image_url": "https://s3-media3.fl.yelpcdn.com/bphoto/zvRVsO-Hp201-AEplRGfVg/o.jpg", "is_closed": false, "url": "https://www.yelp.com/biz/pengs-noodle-folk-new-york-2?adjust_creative=-dNcS0Zb3UiJXBpAhH8gvw&utm_campaign=yelp_api_v3&utm_medium=api_v3_business_search&utm_source=-dNcS0Zb3UiJXBpAhH8gvw", "review_count": 562, "categories": [{"alias": "chinese", "title": "Chinese"}, {"alias": "noodles", "title": "Noodles"}, {"alias": "ramen", "title": "Ramen"}], "rating": 4.5, "coordinates": {"latitude": 40.7711335538802, "longitude": -73.9620354269869}, "transactions": ["delivery", "pickup"], "price": "$$", "location": {"address1": "1016 Lexington Ave", "address2": "", "address3": null, "city": "New York", "zip_code": "10021", "country": "US", "state": "NY", "display_address": ["1016 Lexington Ave", "New York, NY 10021"]}, "phone": "+19293913950", "display_phone": "(929) 391-3950", "distance": 1473.5472312773875}, {"id": "WVsPyl-DGRu0O_rQYdIMVQ", "alias": "the-best-sichuan-new-york-6", "name": "The Best Sichuan", "image_url": "https://s3-media2.fl.yelpcdn.com/bphoto/HHeDCT6NAE6Ssk6R3gFBrQ/o.jpg", "is_closed": false, "url": "https://www.yelp.com/biz/the-best-sichuan-new-york-6?adjust_creative=-dNcS0Zb3UiJXBpAhH8gvw&utm_campaign=yelp_api_v3&utm_medium=api_v3_business_search&utm_source=-dNcS0Zb3UiJXBpAhH8gvw", "review_count": 126, "categories": [{"alias": "szechuan", "title": "Szechuan"}], "rating": 4.5, "coordinates": {"latitude": 40.75266, "longitude": -73.98459}, "transactions": ["delivery", "pickup"], "price": "$$", "location": {"address1": "47 W 39th St", "address2": "", "address3": null, "city": "New York", "zip_code": "10018", "country": "US", "state": "NY", "display_address": ["47 W 39th St", "New York, NY 10018"]}, "phone": "+12128890980", "display_phone": "(212) 889-0980", "distance": 1447.7663862952395}, {"id": "0dDCDQz7DrKkSvu9h2hcQw", "alias": "chow-house-new-york", "name": "Chow House", "image_url": "https://s3-media3.fl.yelpcdn.com/bphoto/kzeClsI9_2tkHqKScotx1Q/o.jpg", "is_closed": false, "url": "https://www.yelp.com/biz/chow-house-new-york?adjust_creative=-dNcS0Zb3UiJXBpAhH8gvw&utm_campaign=yelp_api_v3&utm_medium=api_v3_business_search&utm_source=-dNcS0Zb3UiJXBpAhH8gvw", "review_count": 634, "categories": [{"alias": "szechuan", "title": "Szechuan"}, {"alias": "noodles", "title": "Noodles"}, {"alias": "soup", "title": "Soup"}], "rating": 4.5, "coordinates": {"latitude": 40.72915, "longitude": -74.00072}, "transactions": ["delivery", "restaurant_reservation", "pickup"], "price": "$$", "location": {"address1": "181 Bleecker St", "address2": null, "address3": "", "city": "New York", "zip_code": "10012", "country": "US", "state": "NY", "display_address": ["181 Bleecker St", "New York, NY 10012"]}, "phone": "+12128371021", "display_phone": "(212) 837-1021", "distance": 4246.647816529324}, {"id": "R3UNnA8EbjhNWBHS0wJ0VA", "alias": "grand-sichuan-eastern-new-york", "name": "Grand Sichuan Eastern", "image_url": "https://s3-media1.fl.yelpcdn.com/bphoto/4yhGHgY-7IeIDxGAJVLRBQ/o.jpg", "is_closed": false, "url": "https://www.yelp.com/biz/grand-sichuan-eastern-new-york?adjust_creative=-dNcS0Zb3UiJXBpAhH8gvw&utm_campaign=yelp_api_v3&utm_medium=api_v3_business_search&utm_source=-dNcS0Zb3UiJXBpAhH8gvw", "review_count": 280, "categories": [{"alias": "szechuan", "title": "Szechuan"}], "rating": 3.5, "coordinates": {"latitude": 40.75831, "longitude": -73.96636}, "transactions": ["delivery", "pickup"], "price": "$$", "location": {"address1": "1049 2nd Ave", "address2": "", "address3": "", "city": "New York", "zip_code": "10022", "country": "US", "state": "NY", "display_address": ["1049 2nd Ave", "New York, NY 10022"]}, "phone": "+12123555855", "display_phone": "(212) 355-5855", "distance": 287.43231475890053}, {"id": "jc7lVTvmYMIK5RNpENtS6w", "alias": "szechuan-mountain-house-new-york-2", "name": "Szechuan Mountain House", "image_url": "https://s3-media3.fl.yelpcdn.com/bphoto/VmRw8ZSq_dm_z-AiZuo_Yw/o.jpg", "is_closed": false, "url": "https://www.yelp.com/biz/szechuan-mountain-house-new-york-2?adjust_creative=-dNcS0Zb3UiJXBpAhH8gvw&utm_campaign=yelp_api_v3&utm_medium=api_v3_business_search&utm_source=-dNcS0Zb3UiJXBpAhH8gvw", "review_count": 668, "categories": [{"alias": "szechuan", "title": "Szechuan"}], "rating": 4.5, "coordinates": {"latitude": 40.72911, "longitude": -73.98858}, "transactions": ["delivery", "pickup"], "price": "$$", "location": {"address1": "23 St Marks Pl", "address2": "", "address3": null, "city": "New York", "zip_code": "10003", "country": "US", "state": "NY", "display_address": ["23 St Marks Pl", "New York, NY 10003"]}, "phone": "+19173883866", "display_phone": "(917) 388-3866", "distance": 3697.7557053092455}, {"id": "1dFOF1HPaThSCsdiqR7DrA", "alias": "land-of-plenty-new-york", "name": "Land of Plenty", "image_url": "https://s3-media2.fl.yelpcdn.com/bphoto/WrSFpqOnG6LgzhUJ3kxYgw/o.jpg", "is_closed": false, "url": "https://www.yelp.com/biz/land-of-plenty-new-york?adjust_creative=-dNcS0Zb3UiJXBpAhH8gvw&utm_campaign=yelp_api_v3&utm_medium=api_v3_business_search&utm_source=-dNcS0Zb3UiJXBpAhH8gvw", "review_count": 372, "categories": [{"alias": "chinese", "title": "Chinese"}], "rating": 3.5, "coordinates": {"latitude": 40.76063, "longitude": -73.96664}, "transactions": ["delivery", "pickup"], "price": "$$", "location": {"address1": "204E 58th St", "address2": "", "address3": "", "city": "New York", "zip_code": "10022", "country": "US", "state": "NY", "display_address": ["204E 58th St", "New York, NY 10022"]}, "phone": "+12123088788", "display_phone": "(212) 308-8788", "distance": 291.02890269892356}, {"id": "LT0yyLNM84EiJj9DL0rfHA", "alias": "hui-restaurant-and-bar-new-york", "name": "Hui Restaurant & Bar", "image_url": "https://s3-media1.fl.yelpcdn.com/bphoto/9iWT7Jekk7AAW3ZoIvRPhQ/o.jpg", "is_closed": false, "url": "https://www.yelp.com/biz/hui-restaurant-and-bar-new-york?adjust_creative=-dNcS0Zb3UiJXBpAhH8gvw&utm_campaign=yelp_api_v3&utm_medium=api_v3_business_search&utm_source=-dNcS0Zb3UiJXBpAhH8gvw", "review_count": 288, "categories": [{"alias": "bars", "title": "Bars"}, {"alias": "szechuan", "title": "Szechuan"}, {"alias": "dimsum", "title": "Dim Sum"}], "rating": 4.5, "coordinates": {"latitude": 40.76701, "longitude": -73.95846}, "transactions": ["delivery", "restaurant_reservation", "pickup"], "price": "$$", "location": {"address1": "314 E 70th St", "address2": "", "address3": null, "city": "New York", "zip_code": "10021", "country": "US", "state": "NY", "display_address": ["314 E 70th St", "New York, NY 10021"]}, "phone": "+16468690339", "display_phone": "(646) 869-0339", "distance": 1268.2688338072192}, {"id": "Ece_DRuD1yQjRPJBAebRpw", "alias": "kung-fu-little-steamed-buns-ramen-new-york-2", "name": "Kung Fu Little Steamed Buns Ramen", "image_url": "https://s3-media4.fl.yelpcdn.com/bphoto/nPD2snG4Uk7NJLKRs2c5SQ/o.jpg", "is_closed": false, "url": "https://www.yelp.com/biz/kung-fu-little-steamed-buns-ramen-new-york-2?adjust_creative=-dNcS0Zb3UiJXBpAhH8gvw&utm_campaign=yelp_api_v3&utm_medium=api_v3_business_search&utm_source=-dNcS0Zb3UiJXBpAhH8gvw", "review_count": 391, "categories": [{"alias": "ramen", "title": "Ramen"}, {"alias": "chinese", "title": "Chinese"}], "rating": 3.5, "coordinates": {"latitude": 40.7592514705491, "longitude": -73.9694294705987}, "transactions": ["delivery", "pickup"], "price": "$$", "location": {"address1": "146 E 55th St", "address2": "", "address3": "", "city": "New York", "zip_code": "10022", "country": "US", "state": "NY", "display_address": ["146 E 55th St", "New York, NY 10022"]}, "phone": "+12128048556", "display_phone": "(212) 804-8556", "distance": 14.86578150266121}, {"id": "p4xNh2NAy85Br77XaomFOw", "alias": "oohu-new-york", "name": "OOHU", "image_url": "https://s3-media4.fl.yelpcdn.com/bphoto/H-1YRNcl0ctmHyNjorSesA/o.jpg", "is_closed": false, "url": "https://www.yelp.com/biz/oohu-new-york?adjust_creative=-dNcS0Zb3UiJXBpAhH8gvw&utm_campaign=yelp_api_v3&utm_medium=api_v3_business_search&utm_source=-dNcS0Zb3UiJXBpAhH8gvw", "review_count": 33, "categories": [{"alias": "szechuan", "title": "Szechuan"}, {"alias": "cantonese", "title": "Cantonese"}, {"alias": "seafood", "title": "Seafood"}], "rating": 4.5, "coordinates": {"latitude": 40.751493955047785, "longitude": -73.9883517}, "transactions": ["delivery", "pickup"], "price": "$$", "location": {"address1": "128 W 36th St", "address2": "", "address3": null, "city": "New York", "zip_code": "10018", "country": "US", "state": "NY", "display_address": ["128 W 36th St", "New York, NY 10018"]}, "phone": "+12125758899", "display_phone": "(212) 575-8899", "distance": 1797.514722092165}, {"id": "HR_a2QSA_KJZIakufAJUmg", "alias": "szechuan-gourmet-new-york-13", "name": "Szechuan Gourmet", "image_url": "https://s3-media3.fl.yelpcdn.com/bphoto/Nr4eeyh5SOWTjZ2kBXcmvg/o.jpg", "is_closed": false, "url": "https://www.yelp.com/biz/szechuan-gourmet-new-york-13?adjust_creative=-dNcS0Zb3UiJXBpAhH8gvw&utm_campaign=yelp_api_v3&utm_medium=api_v3_business_search&utm_source=-dNcS0Zb3UiJXBpAhH8gvw", "review_count": 65, "categories": [{"alias": "szechuan", "title": "Szechuan"}], "rating": 4.5, "coordinates": {"latitude": 40.752347, "longitude": -73.983559}, "transactions": ["delivery", "pickup"], "location": {"address1": "21 W 39th St", "address2": "", "address3": null, "city": "New York", "zip_code": "10018", "country": "US", "state": "NY", "display_address": ["21 W 39th St", "New York, NY 10018"]}, "phone": "+12129210233", "display_phone": "(212) 921-0233", "distance": 1401.4204554673825}, {"id": "QaolMEijS7L6eodSneOdng", "alias": "tri-dim-shanghai-west-new-york-3", "name": "Tri Dim Shanghai West", "image_url": "https://s3-media2.fl.yelpcdn.com/bphoto/N-YlevGHM_fG7NI_5xRbzw/o.jpg", "is_closed": false, "url": "https://www.yelp.com/biz/tri-dim-shanghai-west-new-york-3?adjust_creative=-dNcS0Zb3UiJXBpAhH8gvw&utm_campaign=yelp_api_v3&utm_medium=api_v3_business_search&utm_source=-dNcS0Zb3UiJXBpAhH8gvw", "review_count": 226, "categories": [{"alias": "shanghainese", "title": "Shanghainese"}, {"alias": "szechuan", "title": "Szechuan"}, {"alias": "dimsum", "title": "Dim Sum"}], "rating": 4.0, "coordinates": {"latitude": 40.78412, "longitude": -73.97368}, "transactions": ["delivery", "restaurant_reservation", "pickup"], "price": "$$", "location": {"address1": "467 Columbus Ave", "address2": "", "address3": null, "city": "New York", "zip_code": "10024", "country": "US", "state": "NY", "display_address": ["467 Columbus Ave", "New York, NY 10024"]}, "phone": "+12125851398", "display_phone": "(212) 585-1398", "distance": 2795.2548845681777}, {"id": "lynQoI3w_pzYfHGeuUU-Qg", "alias": "shu-jiao-fu-zhou-new-york-2", "name": "Shu Jiao Fu Zhou", "image_url": "https://s3-media2.fl.yelpcdn.com/bphoto/Nmkgn1o5hidyES6mWk8VHg/o.jpg", "is_closed": false, "url": "https://www.yelp.com/biz/shu-jiao-fu-zhou-new-york-2?adjust_creative=-dNcS0Zb3UiJXBpAhH8gvw&utm_campaign=yelp_api_v3&utm_medium=api_v3_business_search&utm_source=-dNcS0Zb3UiJXBpAhH8gvw", "review_count": 1316, "categories": [{"alias": "chinese", "title": "Chinese"}], "rating": 4.5, "coordinates": {"latitude": 40.7174109, "longitude": -73.99210041198651}, "transactions": ["delivery", "pickup"], "price": "$", "location": {"address1": "295 Grand St", "address2": null, "address3": null, "city": "New York", "zip_code": "10002", "country": "US", "state": "NY", "display_address": ["295 Grand St", "New York, NY 10002"]}, "phone": "+12126252532", "display_phone": "(212) 625-2532", "distance": 5016.77193288132}, {"id": "Qwd4Tv-CqgO2Yl9zZgkKOQ", "alias": "shun-lee-palace-new-york", "name": "Shun Lee Palace", "image_url": "https://s3-media1.fl.yelpcdn.com/bphoto/R4iutsbVl_k1c34b62qrdQ/o.jpg", "is_closed": false, "url": "https://www.yelp.com/biz/shun-lee-palace-new-york?adjust_creative=-dNcS0Zb3UiJXBpAhH8gvw&utm_campaign=yelp_api_v3&utm_medium=api_v3_business_search&utm_source=-dNcS0Zb3UiJXBpAhH8gvw", "review_count": 341, "categories": [{"alias": "chinese", "title": "Chinese"}], "rating": 3.0, "coordinates": {"latitude": 40.75945, "longitude": -73.96907}, "transactions": ["delivery", "pickup"], "price": "$$$", "location": {"address1": "155 E 55th St", "address2": "", "address3": "", "city": "New York", "zip_code": "10022", "country": "US", "state": "NY", "display_address": ["155 E 55th St", "New York, NY 10022"]}, "phone": "+12123718844", "display_phone": "(212) 371-8844", "distance": 51.0961924718641}, {"id": "UK1oGbr8GU2rufpnJR4-HQ", "alias": "joes-home-of-soup-dumplings-new-york", "name": "Joe's Home of Soup Dumplings", "image_url": "https://s3-media3.fl.yelpcdn.com/bphoto/MdcCoAKlW3RTSSQInj-YcQ/o.jpg", "is_closed": false, "url": "https://www.yelp.com/biz/joes-home-of-soup-dumplings-new-york?adjust_creative=-dNcS0Zb3UiJXBpAhH8gvw&utm_campaign=yelp_api_v3&utm_medium=api_v3_business_search&utm_source=-dNcS0Zb3UiJXBpAhH8gvw", "review_count": 494, "categories": [{"alias": "shanghainese", "title": "Shanghainese"}, {"alias": "noodles", "title": "Noodles"}], "rating": 4.5, "coordinates": {"latitude": 40.75723, "longitude": -73.97702}, "transactions": ["delivery", "pickup"], "price": "$$", "location": {"address1": "7 E 48th St", "address2": "between Fifth and Madison avenues", "address3": null, "city": "New York", "zip_code": "10017", "country": "US", "state": "NY", "display_address": ["7 E 48th St", "between Fifth and Madison avenues", "New York, NY 10017"]}, "phone": "+12123333868", "display_phone": "(212) 333-3868", "distance": 684.260337553095}, {"id": "mUl0wtO7tPkBocuJqZ-7Dw", "alias": "dun-huang-grand-central-new-york-4", "name": "Dun Huang -  Grand Central", "image_url": "https://s3-media2.fl.yelpcdn.com/bphoto/TmMr0NikR2kI8TXBHZ7qJw/o.jpg", "is_closed": false, "url": "https://www.yelp.com/biz/dun-huang-grand-central-new-york-4?adjust_creative=-dNcS0Zb3UiJXBpAhH8gvw&utm_campaign=yelp_api_v3&utm_medium=api_v3_business_search&utm_source=-dNcS0Zb3UiJXBpAhH8gvw", "review_count": 327, "categories": [{"alias": "chinese", "title": "Chinese"}, {"alias": "noodles", "title": "Noodles"}], "rating": 4.5, "coordinates": {"latitude": 40.74922, "longitude": -73.97785}, "transactions": ["delivery", "pickup"], "price": "$$", "location": {"address1": "320 Lexington Ave", "address2": null, "address3": null, "city": "New York", "zip_code": "10016", "country": "US", "state": "NY", "display_address": ["320 Lexington Ave", "New York, NY 10016"]}, "phone": "+16469644007", "display_phone": "(646) 964-4007", "distance": 1310.515017201054}, {"id": "Q85ScF9s6vlS5_i453AFvg", "alias": "tangy-noodle-new-york", "name": "Tangy Noodle", "image_url": "https://s3-media1.fl.yelpcdn.com/bphoto/kl0nCzym1cMDF7nhjkgzfg/o.jpg", "is_closed": false, "url": "https://www.yelp.com/biz/tangy-noodle-new-york?adjust_creative=-dNcS0Zb3UiJXBpAhH8gvw&utm_campaign=yelp_api_v3&utm_medium=api_v3_business_search&utm_source=-dNcS0Zb3UiJXBpAhH8gvw", "review_count": 71, "categories": [{"alias": "noodles", "title": "Noodles"}, {"alias": "dimsum", "title": "Dim Sum"}], "rating": 4.5, "coordinates": {"latitude": 40.740203, "longitude": -74.00193}, "transactions": ["delivery", "pickup"], "location": {"address1": "98 8th Ave", "address2": "", "address3": null, "city": "New York", "zip_code": "10011", "country": "US", "state": "NY", "display_address": ["98 8th Ave", "New York, NY 10011"]}, "phone": "+19172614931", "display_phone": "(917) 261-4931", "distance": 3444.124221272929}, {"id": "oJ6fy4fBv_3WskxH4NfNBg", "alias": "chef-huang-jian-bing-and-peking-duck-new-york", "name": "Chef Huang Jian Bing & Peking Duck", "image_url": "https://s3-media1.fl.yelpcdn.com/bphoto/X0bnrN80tDyucd9bjWcTtA/o.jpg", "is_closed": false, "url": "https://www.yelp.com/biz/chef-huang-jian-bing-and-peking-duck-new-york?adjust_creative=-dNcS0Zb3UiJXBpAhH8gvw&utm_campaign=yelp_api_v3&utm_medium=api_v3_business_search&utm_source=-dNcS0Zb3UiJXBpAhH8gvw", "review_count": 75, "categories": [{"alias": "cantonese", "title": "Cantonese"}], "rating": 4.5, "coordinates": {"latitude": 40.74531205210646, "longitude": -73.9757772}, "transactions": ["restaurant_reservation", "pickup"], "location": {"address1": "635 2nd Ave", "address2": "", "address3": null, "city": "New York", "zip_code": "10016", "country": "US", "state": "NY", "display_address": ["635 2nd Ave", "New York, NY 10016"]}, "phone": "+16469186065", "display_phone": "(646) 918-6065", "distance": 1627.6106663376115}, {"id": "uaFHoq-a5XqxF-bsOK9_Qg", "alias": "real-kung-fu-little-steamed-buns-ramen-new-york-2", "name": "Real Kung Fu Little Steamed Buns Ramen", "image_url": "https://s3-media4.fl.yelpcdn.com/bphoto/IqEh8wN9nggxWsWUxqtkyQ/o.jpg", "is_closed": false, "url": "https://www.yelp.com/biz/real-kung-fu-little-steamed-buns-ramen-new-york-2?adjust_creative=-dNcS0Zb3UiJXBpAhH8gvw&utm_campaign=yelp_api_v3&utm_medium=api_v3_business_search&utm_source=-dNcS0Zb3UiJXBpAhH8gvw", "review_count": 1153, "categories": [{"alias": "chinese", "title": "Chinese"}, {"alias": "ramen", "title": "Ramen"}], "rating": 4.0, "coordinates": {"latitude": 40.7616286634162, "longitude": -73.98688}, "transactions": ["delivery", "pickup"], "price": "$$", "location": {"address1": "811 8th Ave", "address2": "", "address3": "", "city": "New York", "zip_code": "10019", "country": "US", "state": "NY", "display_address": ["811 8th Ave", "New York, NY 10019"]}, "phone": "+19173882555", "display_phone": "(917) 388-2555", "distance": 1482.905735707008}, {"id": "wDuf4Qz9qsC62amLZgWNJQ", "alias": "little-alley-new-york", "name": "Little Alley", "image_url": "https://s3-media2.fl.yelpcdn.com/bphoto/YgboZ55f3R6cxa_gO7BVHQ/o.jpg", "is_closed": false, "url": "https://www.yelp.com/biz/little-alley-new-york?adjust_creative=-dNcS0Zb3UiJXBpAhH8gvw&utm_campaign=yelp_api_v3&utm_medium=api_v3_business_search&utm_source=-dNcS0Zb3UiJXBpAhH8gvw", "review_count": 534, "categories": [{"alias": "shanghainese", "title": "Shanghainese"}], "rating": 4.0, "coordinates": {"latitude": 40.74744, "longitude": -73.97728}, "transactions": ["delivery", "pickup"], "price": "$$", "location": {"address1": "550 3rd Ave", "address2": null, "address3": "", "city": "New York", "zip_code": "10016", "country": "US", "state": "NY", "display_address": ["550 3rd Ave", "New York, NY 10016"]}, "phone": "+16469983976", "display_phone": "(646) 998-3976", "distance": 1457.229871616147}, {"id": "ICNwlgXTrvFrGvaScUp8Ew", "alias": "for-u-new-york", "name": "For U", "image_url": "https://s3-media1.fl.yelpcdn.com/bphoto/pOYLMJQ_RzRyuhh7vFG4mQ/o.jpg", "is_closed": false, "url": "https://www.yelp.com/biz/for-u-new-york?adjust_creative=-dNcS0Zb3UiJXBpAhH8gvw&utm_campaign=yelp_api_v3&utm_medium=api_v3_business_search&utm_source=-dNcS0Zb3UiJXBpAhH8gvw", "review_count": 14, "categories": [{"alias": "dimsum", "title": "Dim Sum"}, {"alias": "szechuan", "title": "Szechuan"}, {"alias": "asianfusion", "title": "Asian Fusion"}], "rating": 5.0, "coordinates": {"latitude": 40.73415, "longitude": -73.98633}, "transactions": ["delivery", "restaurant_reservation", "pickup"], "location": {"address1": "155 3rd Ave", "address2": "", "address3": "", "city": "New York", "zip_code": "10003", "country": "US", "state": "NY", "display_address": ["155 3rd Ave", "New York, NY 10003"]}, "phone": "+16468223530", "display_phone": "(646) 822-3530", "distance": 3111.8355151038636}, {"id": "GuzlMBKNoClNx5I1-x-DDg", "alias": "53-nyc-new-york", "name": "53 NYC", "image_url": "https://s3-media3.fl.yelpcdn.com/bphoto/NtAcdqUTunURwtVNm0ULIA/o.jpg", "is_closed": false, "url": "https://www.yelp.com/biz/53-nyc-new-york?adjust_creative=-dNcS0Zb3UiJXBpAhH8gvw&utm_campaign=yelp_api_v3&utm_medium=api_v3_business_search&utm_source=-dNcS0Zb3UiJXBpAhH8gvw", "review_count": 114, "categories": [{"alias": "asianfusion", "title": "Asian Fusion"}, {"alias": "bars", "title": "Bars"}, {"alias": "seafood", "title": "Seafood"}], "rating": 4.0, "coordinates": {"latitude": 40.76179318437133, "longitude": -73.9780863}, "transactions": [], "price": "$$$$", "location": {"address1": "53 W 53rd St", "address2": null, "address3": "", "city": "New York", "zip_code": "10019", "country": "US", "state": "NY", "display_address": ["53 W 53rd St", "New York, NY 10019"]}, "phone": "+16465353994", "display_phone": "(646) 535-3994", "distance": 773.8093221239966}, {"id": "l1nX-f46dmOEmYPoiuLSaw", "alias": "peking-duck-house-new-york-2", "name": "Peking Duck House", "image_url": "https://s3-media2.fl.yelpcdn.com/bphoto/c26jtofeAIQpZyqZSkvVUA/o.jpg", "is_closed": false, "url": "https://www.yelp.com/biz/peking-duck-house-new-york-2?adjust_creative=-dNcS0Zb3UiJXBpAhH8gvw&utm_campaign=yelp_api_v3&utm_medium=api_v3_business_search&utm_source=-dNcS0Zb3UiJXBpAhH8gvw", "review_count": 521, "categories": [{"alias": "chinese", "title": "Chinese"}], "rating": 3.5, "coordinates": {"latitude": 40.756912, "longitude": -73.968109}, "transactions": ["delivery", "pickup"], "price": "$$$", "location": {"address1": "236 E 53rd St", "address2": null, "address3": "", "city": "New York", "zip_code": "10022", "country": "US", "state": "NY", "display_address": ["236 E 53rd St", "New York, NY 10022"]}, "phone": "+12127598260", "display_phone": "(212) 759-8260", "distance": 276.38459288670947}, {"id": "TzhAlljC_843JO7UDDUIaQ", "alias": "the-tang-upper-west-side-new-york", "name": "The Tang - Upper West Side", "image_url": "https://s3-media1.fl.yelpcdn.com/bphoto/Ev1tfA47l90QTWYVqbf9LA/o.jpg", "is_closed": false, "url": "https://www.yelp.com/biz/the-tang-upper-west-side-new-york?adjust_creative=-dNcS0Zb3UiJXBpAhH8gvw&utm_campaign=yelp_api_v3&utm_medium=api_v3_business_search&utm_source=-dNcS0Zb3UiJXBpAhH8gvw", "review_count": 306, "categories": [{"alias": "noodles", "title": "Noodles"}, {"alias": "szechuan", "title": "Szechuan"}, {"alias": "dimsum", "title": "Dim Sum"}], "rating": 4.5, "coordinates": {"latitude": 40.80006, "longitude": -73.96639}, "transactions": ["delivery", "pickup"], "price": "$$", "location": {"address1": "920 Amsterdam Ave", "address2": null, "address3": "", "city": "New York", "zip_code": "10025", "country": "US", "state": "NY", "display_address": ["920 Amsterdam Ave", "New York, NY 10025"]}, "phone": "+16465967970", "display_phone": "(646) 596-7970", "distance": 4545.421940886353}, {"id": "1jAB_uaI8-P_wSqOo2S3KQ", "alias": "mazu-szechuan-new-york", "name": "Mazu Szechuan", "image_url": "https://s3-media1.fl.yelpcdn.com/bphoto/8cFEkh35jpLEJ7YNM1uOkg/o.jpg", "is_closed": false, "url": "https://www.yelp.com/biz/mazu-szechuan-new-york?adjust_creative=-dNcS0Zb3UiJXBpAhH8gvw&utm_campaign=yelp_api_v3&utm_medium=api_v3_business_search&utm_source=-dNcS0Zb3UiJXBpAhH8gvw", "review_count": 126, "categories": [{"alias": "szechuan", "title": "Szechuan"}, {"alias": "dimsum", "title": "Dim Sum"}, {"alias": "wine_bars", "title": "Wine Bars"}], "rating": 4.5, "coordinates": {"latitude": 40.745234, "longitude": -73.97812}, "transactions": ["delivery", "restaurant_reservation", "pickup"], "price": "$$", "location": {"address1": "495 3rd Ave", "address2": null, "address3": "", "city": "New York", "zip_code": "10016", "country": "US", "state": "NY", "display_address": ["495 3rd Ave", "New York, NY 10016"]}, "phone": "+16466093388", "display_phone": "(646) 609-3388", "distance": 1707.79962739745}, {"id": "8plXW6ZQI1awPu1scms3jQ", "alias": "silky-kitchen-new-york-5", "name": "Silky Kitchen", "image_url": "https://s3-media4.fl.yelpcdn.com/bphoto/XragS4W7vMzh7FG1cec5Kw/o.jpg", "is_closed": false, "url": "https://www.yelp.com/biz/silky-kitchen-new-york-5?adjust_creative=-dNcS0Zb3UiJXBpAhH8gvw&utm_campaign=yelp_api_v3&utm_medium=api_v3_business_search&utm_source=-dNcS0Zb3UiJXBpAhH8gvw", "review_count": 78, "categories": [{"alias": "chinese", "title": "Chinese"}, {"alias": "salad", "title": "Salad"}, {"alias": "noodles", "title": "Noodles"}], "rating": 4.5, "coordinates": {"latitude": 40.757889, "longitude": -73.984009}, "transactions": ["delivery", "pickup"], "price": "$$", "location": {"address1": "138 W 46th St", "address2": null, "address3": "", "city": "New York", "zip_code": "10036", "country": "US", "state": "NY", "display_address": ["138 W 46th St", "New York, NY 10036"]}, "phone": "+16463603442", "display_phone": "(646) 360-3442", "distance": 1225.914320785559}, {"id": "X8ZS-dgiMIJvhwf9SaDnjw", "alias": "wah-fung-no-1-new-york-2", "name": "Wah Fung No 1", "image_url": "https://s3-media4.fl.yelpcdn.com/bphoto/uO14Qw1yVeNln4z8Pr68aQ/o.jpg", "is_closed": false, "url": "https://www.yelp.com/biz/wah-fung-no-1-new-york-2?adjust_creative=-dNcS0Zb3UiJXBpAhH8gvw&utm_campaign=yelp_api_v3&utm_medium=api_v3_business_search&utm_source=-dNcS0Zb3UiJXBpAhH8gvw", "review_count": 2017, "categories": [{"alias": "hotdogs", "title": "Fast Food"}, {"alias": "cantonese", "title": "Cantonese"}], "rating": 4.5, "coordinates": {"latitude": 40.71735, "longitude": -73.99457}, "transactions": ["delivery"], "price": "$", "location": {"address1": "79 Chrystie St", "address2": "", "address3": "", "city": "New York", "zip_code": "10002", "country": "US", "state": "NY", "display_address": ["79 Chrystie St", "New York, NY 10002"]}, "phone": "+12129255175", "display_phone": "(212) 925-5175", "distance": 5105.4352401517435}, {"id": "croh2zWlbPyCQTNS11klcg", "alias": "china-river-\u5ddd\u805a\u9662-new-york-3", "name": "China River \u5ddd\u805a\u9662", "image_url": "https://s3-media4.fl.yelpcdn.com/bphoto/P0lNJJARUudFGaWDL__fmQ/o.jpg", "is_closed": false, "url": "https://www.yelp.com/biz/china-river-%E5%B7%9D%E8%81%9A%E9%99%A2-new-york-3?adjust_creative=-dNcS0Zb3UiJXBpAhH8gvw&utm_campaign=yelp_api_v3&utm_medium=api_v3_business_search&utm_source=-dNcS0Zb3UiJXBpAhH8gvw", "review_count": 281, "categories": [{"alias": "szechuan", "title": "Szechuan"}, {"alias": "dimsum", "title": "Dim Sum"}], "rating": 4.0, "coordinates": {"latitude": 40.75821, "longitude": -73.98833}, "transactions": ["delivery", "pickup"], "price": "$$", "location": {"address1": "258 W 44th St", "address2": null, "address3": "", "city": "New York", "zip_code": "10036", "country": "US", "state": "NY", "display_address": ["258 W 44th St", "New York, NY 10036"]}, "phone": "+16467670854", "display_phone": "(646) 767-0854", "distance": 1588.120317393162}, {"id": "6YehBdKHcLDsvaewhcEjFQ", "alias": "hey-yuet-new-york", "name": "Hey Yuet", "image_url": "https://s3-media2.fl.yelpcdn.com/bphoto/byR4wTPgJGp32VZ67Hsf8Q/o.jpg", "is_closed": false, "url": "https://www.yelp.com/biz/hey-yuet-new-york?adjust_creative=-dNcS0Zb3UiJXBpAhH8gvw&utm_campaign=yelp_api_v3&utm_medium=api_v3_business_search&utm_source=-dNcS0Zb3UiJXBpAhH8gvw", "review_count": 209, "categories": [{"alias": "dimsum", "title": "Dim Sum"}, {"alias": "cantonese", "title": "Cantonese"}], "rating": 4.5, "coordinates": {"latitude": 40.747241, "longitude": -73.996441}, "transactions": ["delivery", "pickup"], "price": "$$", "location": {"address1": "251 W 26th St", "address2": null, "address3": "", "city": "New York", "zip_code": "10001", "country": "US", "state": "NY", "display_address": ["251 W 26th St", "New York, NY 10001"]}, "phone": "+16469984196", "display_phone": "(646) 998-4196", "distance": 2623.80285864192}, {"id": "XaEFFUabnbH8ZF7ccmSAlQ", "alias": "south-of-the-clouds-new-york", "name": "South Of The Clouds", "image_url": "https://s3-media2.fl.yelpcdn.com/bphoto/9izKhzqYb9dkTMkEuMxFxQ/o.jpg", "is_closed": false, "url": "https://www.yelp.com/biz/south-of-the-clouds-new-york?adjust_creative=-dNcS0Zb3UiJXBpAhH8gvw&utm_campaign=yelp_api_v3&utm_medium=api_v3_business_search&utm_source=-dNcS0Zb3UiJXBpAhH8gvw", "review_count": 251, "categories": [{"alias": "chinese", "title": "Chinese"}, {"alias": "noodles", "title": "Noodles"}, {"alias": "desserts", "title": "Desserts"}], "rating": 4.0, "coordinates": {"latitude": 40.73264, "longitude": -73.99752}, "transactions": ["delivery", "pickup"], "price": "$$", "location": {"address1": "16 W 8th St", "address2": null, "address3": "", "city": "New York", "zip_code": "10011", "country": "US", "state": "NY", "display_address": ["16 W 8th St", "New York, NY 10011"]}, "phone": "+12128889653", "display_phone": "(212) 888-9653", "distance": 3776.4974650220092}, {"id": "FcXsiSJbk2ZnHyFJMkMK3g", "alias": "mala-kitchen-new-york-5", "name": "Mala Kitchen", "image_url": "https://s3-media1.fl.yelpcdn.com/bphoto/fo3eho0K45kFSSWzkAQlhw/o.jpg", "is_closed": false, "url": "https://www.yelp.com/biz/mala-kitchen-new-york-5?adjust_creative=-dNcS0Zb3UiJXBpAhH8gvw&utm_campaign=yelp_api_v3&utm_medium=api_v3_business_search&utm_source=-dNcS0Zb3UiJXBpAhH8gvw", "review_count": 33, "categories": [{"alias": "chinese", "title": "Chinese"}], "rating": 4.0, "coordinates": {"latitude": 40.756545, "longitude": -73.977673}, "transactions": ["delivery", "pickup"], "location": {"address1": "7 E 47th St", "address2": "", "address3": null, "city": "New York", "zip_code": "10017", "country": "US", "state": "NY", "display_address": ["7 E 47th St", "New York, NY 10017"]}, "phone": "+16466697338", "display_phone": "(646) 669-7338", "distance": 746.737521205517}, {"id": "gJXNSJ9VXTuCFmp_Kl9TVQ", "alias": "shanghai-new-york", "name": "Shanghai", "image_url": "https://s3-media3.fl.yelpcdn.com/bphoto/9xIjztc0aVMy1MzPiylYrg/o.jpg", "is_closed": false, "url": "https://www.yelp.com/biz/shanghai-new-york?adjust_creative=-dNcS0Zb3UiJXBpAhH8gvw&utm_campaign=yelp_api_v3&utm_medium=api_v3_business_search&utm_source=-dNcS0Zb3UiJXBpAhH8gvw", "review_count": 136, "categories": [{"alias": "chinese", "title": "Chinese"}], "rating": 4.0, "coordinates": {"latitude": 40.768291, "longitude": -73.958381}, "transactions": ["delivery"], "price": "$", "location": {"address1": "1388 2nd Ave", "address2": "", "address3": "", "city": "New York", "zip_code": "10021", "country": "US", "state": "NY", "display_address": ["1388 2nd Ave", "New York, NY 10021"]}, "phone": "+12122888066", "display_phone": "(212) 288-8066", "distance": 1385.6507919646117}, {"id": "M-4J09S14mPsH1EJrnR1Og", "alias": "yemen-chuanchuan-\u723a\u4eec\u4e32\u4e32-\u7237\u4eec\u4e32\u4e32-new-york", "name": "Yemen chuanchuan \u723a\u4eec\u4e32\u4e32 \u7237\u4eec\u4e32\u4e32", "image_url": "https://s3-media2.fl.yelpcdn.com/bphoto/qN1CVFYlSHzNoHUuIvIXeA/o.jpg", "is_closed": false, "url": "https://www.yelp.com/biz/yemen-chuanchuan-%E7%88%BA%E4%BB%AC%E4%B8%B2%E4%B8%B2-%E7%88%B7%E4%BB%AC%E4%B8%B2%E4%B8%B2-new-york?adjust_creative=-dNcS0Zb3UiJXBpAhH8gvw&utm_campaign=yelp_api_v3&utm_medium=api_v3_business_search&utm_source=-dNcS0Zb3UiJXBpAhH8gvw", "review_count": 20, "categories": [{"alias": "szechuan", "title": "Szechuan"}, {"alias": "hotpot", "title": "Hot Pot"}], "rating": 4.0, "coordinates": {"latitude": 40.745733, "longitude": -73.99132}, "transactions": [], "location": {"address1": "105 W27 St", "address2": null, "address3": "", "city": "New York", "zip_code": "10001", "country": "US", "state": "NY", "display_address": ["105 W27 St", "New York, NY 10001"]}, "phone": "+16464764935", "display_phone": "(646) 476-4935", "distance": 2360.380599191976}], "total": 3400, "region": {"center": {"longitude": -73.96957397460938, "latitude": 40.75917470627005}}}