{"businesses": [{"id": "hdiuRS9sVZSMReZm4oV5SA", "alias": "da-andrea-new-york", "name": "Da Andrea", "image_url": "https://s3-media1.fl.yelpcdn.com/bphoto/OciLddTWxvBLKMH5DkMAOw/o.jpg", "is_closed": false, "url": "https://www.yelp.com/biz/da-andrea-new-york?adjust_creative=-dNcS0Zb3UiJXBpAhH8gvw&utm_campaign=yelp_api_v3&utm_medium=api_v3_business_search&utm_source=-dNcS0Zb3UiJXBpAhH8gvw", "review_count": 2078, "categories": [{"alias": "italian", "title": "Italian"}, {"alias": "mediterranean", "title": "Mediterranean"}, {"alias": "breakfast_brunch", "title": "Breakfast & Brunch"}], "rating": 4.5, "coordinates": {"latitude": 40.736218, "longitude": -73.99597}, "transactions": ["pickup", "delivery", "restaurant_reservation"], "price": "$$", "location": {"address1": "35 W 13th St", "address2": "", "address3": "", "city": "New York", "zip_code": "10011", "country": "US", "state": "NY", "display_address": ["35 W 13th St", "New York, NY 10011"]}, "phone": "+12123671979", "display_phone": "(212) 367-1979", "distance": 3385.3407919611877}, {"id": "VmdyRRMtUXOWV7F7w0ImwQ", "alias": "piccola-cucina-uptown-new-york", "name": "Piccola Cucina Uptown", "image_url": "https://s3-media1.fl.yelpcdn.com/bphoto/AlY4fWNZKAgYaS8bRAYJ4Q/o.jpg", "is_closed": false, "url": "https://www.yelp.com/biz/piccola-cucina-uptown-new-york?adjust_creative=-dNcS0Zb3UiJXBpAhH8gvw&utm_campaign=yelp_api_v3&utm_medium=api_v3_business_search&utm_source=-dNcS0Zb3UiJXBpAhH8gvw", "review_count": 378, "categories": [{"alias": "sicilian", "title": "Sicilian"}], "rating": 4.5, "coordinates": {"latitude": 40.763174, "longitude": -73.969046}, "transactions": ["pickup", "delivery"], "price": "$$$", "location": {"address1": "106 E 60th St", "address2": null, "address3": "", "city": "New York", "zip_code": "10022", "country": "US", "state": "NY", "display_address": ["106 E 60th St", "New York, NY 10022"]}, "phone": "+16467073997", "display_phone": "(646) 707-3997", "distance": 446.91841388672975}, {"id": "DoSU8IPq-Py_YV3kYmXPfQ", "alias": "trattoria-trecolori-new-york", "name": "Trattoria Trecolori", "image_url": "https://s3-media3.fl.yelpcdn.com/bphoto/nnfB_XDK58GS69n29d2E2A/o.jpg", "is_closed": false, "url": "https://www.yelp.com/biz/trattoria-trecolori-new-york?adjust_creative=-dNcS0Zb3UiJXBpAhH8gvw&utm_campaign=yelp_api_v3&utm_medium=api_v3_business_search&utm_source=-dNcS0Zb3UiJXBpAhH8gvw", "review_count": 2679, "categories": [{"alias": "italian", "title": "Italian"}], "rating": 4.0, "coordinates": {"latitude": 40.759876, "longitude": -73.986767}, "transactions": ["pickup", "delivery"], "price": "$$", "location": {"address1": "254 West 47th St", "address2": "", "address3": "", "city": "New York", "zip_code": "10036", "country": "US", "state": "NY", "display_address": ["254 West 47th St", "New York, NY 10036"]}, "phone": "+12129974540", "display_phone": "(212) 997-4540", "distance": 1452.4289910893299}, {"id": "16ZnHpuaaBt92XWeJHCC5A", "alias": "olio-e-pi\u00f9-new-york-7", "name": "Olio e Pi\u00f9", "image_url": "https://s3-media4.fl.yelpcdn.com/bphoto/CUpPgz_Q4QBHxxxxDJJTTA/o.jpg", "is_closed": false, "url": "https://www.yelp.com/biz/olio-e-pi%C3%B9-new-york-7?adjust_creative=-dNcS0Zb3UiJXBpAhH8gvw&utm_campaign=yelp_api_v3&utm_medium=api_v3_business_search&utm_source=-dNcS0Zb3UiJXBpAhH8gvw", "review_count": 4869, "categories": [{"alias": "pizza", "title": "Pizza"}, {"alias": "italian", "title": "Italian"}, {"alias": "cocktailbars", "title": "Cocktail Bars"}], "rating": 4.5, "coordinates": {"latitude": 40.733798036104304, "longitude": -73.99977392649927}, "transactions": ["pickup", "delivery"], "price": "$$", "location": {"address1": "3 Greenwich Ave", "address2": null, "address3": "", "city": "New York", "zip_code": "10014", "country": "US", "state": "NY", "display_address": ["3 Greenwich Ave", "New York, NY 10014"]}, "phone": "+12122436546", "display_phone": "(212) 243-6546", "distance": 3799.3053857408804}, {"id": "OWNmOq-TAsHjGcYdCVclSw", "alias": "osteria-la-baia-new-york", "name": "Osteria La Baia", "image_url": "https://s3-media2.fl.yelpcdn.com/bphoto/ccTZ0M8Ww_ibyw36BPcyuA/o.jpg", "is_closed": false, "url": "https://www.yelp.com/biz/osteria-la-baia-new-york?adjust_creative=-dNcS0Zb3UiJXBpAhH8gvw&utm_campaign=yelp_api_v3&utm_medium=api_v3_business_search&utm_source=-dNcS0Zb3UiJXBpAhH8gvw", "review_count": 110, "categories": [{"alias": "italian", "title": "Italian"}], "rating": 4.5, "coordinates": {"latitude": 40.76189587672743, "longitude": -73.9806749}, "transactions": ["pickup", "delivery"], "location": {"address1": "129 W 52nd St", "address2": null, "address3": "", "city": "New York", "zip_code": "10019", "country": "US", "state": "NY", "display_address": ["129 W 52nd St", "New York, NY 10019"]}, "phone": "+19176719898", "display_phone": "(917) 671-9898", "distance": 982.7063497672891}, {"id": "vjubSxmdG_HoBBgd39geBw", "alias": "ninos-46-new-york", "name": "Nino's 46", "image_url": "https://s3-media4.fl.yelpcdn.com/bphoto/wFy83D_d5e89zMGcO5omWg/o.jpg", "is_closed": false, "url": "https://www.yelp.com/biz/ninos-46-new-york?adjust_creative=-dNcS0Zb3UiJXBpAhH8gvw&utm_campaign=yelp_api_v3&utm_medium=api_v3_business_search&utm_source=-dNcS0Zb3UiJXBpAhH8gvw", "review_count": 1411, "categories": [{"alias": "italian", "title": "Italian"}, {"alias": "gluten_free", "title": "Gluten-Free"}, {"alias": "pizza", "title": "Pizza"}], "rating": 4.0, "coordinates": {"latitude": 40.756899, "longitude": -73.980507}, "transactions": ["pickup", "delivery", "restaurant_reservation"], "price": "$$", "location": {"address1": "39 W 46th St", "address2": null, "address3": "", "city": "New York", "zip_code": "10036", "country": "US", "state": "NY", "display_address": ["39 W 46th St", "New York, NY 10036"]}, "phone": "+12127194015", "display_phone": "(212) 719-4015", "distance": 955.8210456664629}, {"id": "HpxYBu1ARzOGvuUcLJe54g", "alias": "giardino-54-new-york", "name": "Giardino 54", "image_url": "https://s3-media3.fl.yelpcdn.com/bphoto/c2ryLJ0qvZqNTIgJevQ9YQ/o.jpg", "is_closed": false, "url": "https://www.yelp.com/biz/giardino-54-new-york?adjust_creative=-dNcS0Zb3UiJXBpAhH8gvw&utm_campaign=yelp_api_v3&utm_medium=api_v3_business_search&utm_source=-dNcS0Zb3UiJXBpAhH8gvw", "review_count": 231, "categories": [{"alias": "wine_bars", "title": "Wine Bars"}, {"alias": "italian", "title": "Italian"}, {"alias": "cocktailbars", "title": "Cocktail Bars"}], "rating": 4.5, "coordinates": {"latitude": 40.7660476, "longitude": -73.987591}, "transactions": ["pickup", "delivery"], "price": "$$$", "location": {"address1": "400 1/2 W 54th St", "address2": "", "address3": null, "city": "New York", "zip_code": "10019", "country": "US", "state": "NY", "display_address": ["400 1/2 W 54th St", "New York, NY 10019"]}, "phone": "+16467264575", "display_phone": "(646) 726-4575", "distance": 1699.0007242022727}, {"id": "22nKUyCIbpnzR6R3_g1ptQ", "alias": "carmines-italian-restaurant-times-square-new-york-5", "name": "Carmine's Italian Restaurant - Times Square", "image_url": "https://s3-media1.fl.yelpcdn.com/bphoto/0UszeEYPWI-RIk0Ak6HtVQ/o.jpg", "is_closed": false, "url": "https://www.yelp.com/biz/carmines-italian-restaurant-times-square-new-york-5?adjust_creative=-dNcS0Zb3UiJXBpAhH8gvw&utm_campaign=yelp_api_v3&utm_medium=api_v3_business_search&utm_source=-dNcS0Zb3UiJXBpAhH8gvw", "review_count": 4669, "categories": [{"alias": "italian", "title": "Italian"}, {"alias": "venues", "title": "Venues & Event Spaces"}], "rating": 4.0, "coordinates": {"latitude": 40.75749848725768, "longitude": -73.98665333142026}, "transactions": ["pickup", "delivery"], "price": "$$", "location": {"address1": "200 W 44th St", "address2": "", "address3": "", "city": "New York", "zip_code": "10036", "country": "US", "state": "NY", "display_address": ["200 W 44th St", "New York, NY 10036"]}, "phone": "+12122213800", "display_phone": "(212) 221-3800", "distance": 1450.5628509441922}, {"id": "rp8S7scxOkVVeG7dNneMGQ", "alias": "l-artusi-new-york", "name": "L'Artusi", "image_url": "https://s3-media2.fl.yelpcdn.com/bphoto/mf-sqEXHdm6aLo3i3LJsfQ/o.jpg", "is_closed": false, "url": "https://www.yelp.com/biz/l-artusi-new-york?adjust_creative=-dNcS0Zb3UiJXBpAhH8gvw&utm_campaign=yelp_api_v3&utm_medium=api_v3_business_search&utm_source=-dNcS0Zb3UiJXBpAhH8gvw", "review_count": 2368, "categories": [{"alias": "italian", "title": "Italian"}, {"alias": "cocktailbars", "title": "Cocktail Bars"}], "rating": 4.5, "coordinates": {"latitude": 40.73372, "longitude": -74.00513}, "transactions": ["pickup", "delivery"], "price": "$$$", "location": {"address1": "228 W 10th St", "address2": "", "address3": "", "city": "New York", "zip_code": "10014", "country": "US", "state": "NY", "display_address": ["228 W 10th St", "New York, NY 10014"]}, "phone": "+12122555757", "display_phone": "(212) 255-5757", "distance": 4120.568867022396}, {"id": "OAqsZMbjv66nOMqlimnYuQ", "alias": "uva-new-york", "name": "Uva", "image_url": "https://s3-media2.fl.yelpcdn.com/bphoto/Dv_IaSo7QTUrRRtclijk2w/o.jpg", "is_closed": false, "url": "https://www.yelp.com/biz/uva-new-york?adjust_creative=-dNcS0Zb3UiJXBpAhH8gvw&utm_campaign=yelp_api_v3&utm_medium=api_v3_business_search&utm_source=-dNcS0Zb3UiJXBpAhH8gvw", "review_count": 2772, "categories": [{"alias": "italian", "title": "Italian"}, {"alias": "wine_bars", "title": "Wine Bars"}, {"alias": "pizza", "title": "Pizza"}], "rating": 4.0, "coordinates": {"latitude": 40.77219299003591, "longitude": -73.95561517222123}, "transactions": ["pickup", "delivery", "restaurant_reservation"], "price": "$$$", "location": {"address1": "1486 2nd Ave", "address2": null, "address3": "", "city": "New York", "zip_code": "10075", "country": "US", "state": "NY", "display_address": ["1486 2nd Ave", "New York, NY 10075"]}, "phone": "+12124724552", "display_phone": "(212) 472-4552", "distance": 1864.78437788453}, {"id": "ktMtLr8mp4K7IGxUgCTs6Q", "alias": "bocca-di-bacco-new-york-12", "name": "Bocca di Bacco", "image_url": "https://s3-media3.fl.yelpcdn.com/bphoto/ax3QNEF0qzlYysnKT9nAmg/o.jpg", "is_closed": false, "url": "https://www.yelp.com/biz/bocca-di-bacco-new-york-12?adjust_creative=-dNcS0Zb3UiJXBpAhH8gvw&utm_campaign=yelp_api_v3&utm_medium=api_v3_business_search&utm_source=-dNcS0Zb3UiJXBpAhH8gvw", "review_count": 12, "categories": [{"alias": "italian", "title": "Italian"}, {"alias": "wine_bars", "title": "Wine Bars"}, {"alias": "breakfast_brunch", "title": "Breakfast & Brunch"}], "rating": 4.5, "coordinates": {"latitude": 40.76021745303923, "longitude": -73.99156281784906}, "transactions": ["pickup", "delivery"], "location": {"address1": "635 9th Ave", "address2": null, "address3": "", "city": "New York", "zip_code": "10036", "country": "US", "state": "NY", "display_address": ["635 9th Ave", "New York, NY 10036"]}, "phone": "+12122622525", "display_phone": "(212) 262-2525", "distance": 1855.636432073407}, {"id": "TzVVPWK_4dhdSEpNqZwIhQ", "alias": "toscana-49-new-york", "name": "Toscana 49", "image_url": "https://s3-media2.fl.yelpcdn.com/bphoto/fIjHQVFX3evMCBJ0VhbkCA/o.jpg", "is_closed": false, "url": "https://www.yelp.com/biz/toscana-49-new-york?adjust_creative=-dNcS0Zb3UiJXBpAhH8gvw&utm_campaign=yelp_api_v3&utm_medium=api_v3_business_search&utm_source=-dNcS0Zb3UiJXBpAhH8gvw", "review_count": 346, "categories": [{"alias": "italian", "title": "Italian"}], "rating": 4.0, "coordinates": {"latitude": 40.7556957079225, "longitude": -73.9717184007168}, "transactions": ["pickup", "delivery"], "price": "$$$", "location": {"address1": "143 East 49 St", "address2": "", "address3": "", "city": "New York", "zip_code": "10017", "country": "US", "state": "NY", "display_address": ["143 East 49 St", "New York, NY 10017"]}, "phone": "+12122560190", "display_phone": "(212) 256-0190", "distance": 426.9355776481454}, {"id": "26emJlm1YMFyOCezfgVk4g", "alias": "da-raffaele-new-york", "name": "Da Raffaele", "image_url": "https://s3-media3.fl.yelpcdn.com/bphoto/qQ1oAz1LA54i9i_kGjrzhA/o.jpg", "is_closed": false, "url": "https://www.yelp.com/biz/da-raffaele-new-york?adjust_creative=-dNcS0Zb3UiJXBpAhH8gvw&utm_campaign=yelp_api_v3&utm_medium=api_v3_business_search&utm_source=-dNcS0Zb3UiJXBpAhH8gvw", "review_count": 221, "categories": [{"alias": "italian", "title": "Italian"}], "rating": 4.5, "coordinates": {"latitude": 40.7535386913133, "longitude": -73.9666010811925}, "transactions": ["delivery"], "price": "$$", "location": {"address1": "883 First Ave", "address2": "", "address3": "", "city": "New York", "zip_code": "10022", "country": "US", "state": "NY", "display_address": ["883 First Ave", "New York, NY 10022"]}, "phone": "+16468959849", "display_phone": "(646) 895-9849", "distance": 674.8701930843818}, {"id": "562aZEpTDdYKDe5hWuDyFA", "alias": "la-gioconda-new-york", "name": "La Gioconda", "image_url": "https://s3-media3.fl.yelpcdn.com/bphoto/ZaA665f7XNgawSHn-1DMJQ/o.jpg", "is_closed": false, "url": "https://www.yelp.com/biz/la-gioconda-new-york?adjust_creative=-dNcS0Zb3UiJXBpAhH8gvw&utm_campaign=yelp_api_v3&utm_medium=api_v3_business_search&utm_source=-dNcS0Zb3UiJXBpAhH8gvw", "review_count": 195, "categories": [{"alias": "italian", "title": "Italian"}, {"alias": "wine_bars", "title": "Wine Bars"}, {"alias": "tapasmallplates", "title": "Tapas/Small Plates"}], "rating": 4.0, "coordinates": {"latitude": 40.75716, "longitude": -73.96833}, "transactions": ["pickup", "delivery"], "price": "$$", "location": {"address1": "226 E 53rd St", "address2": "", "address3": "", "city": "New York", "zip_code": "10022", "country": "US", "state": "NY", "display_address": ["226 E 53rd St", "New York, NY 10022"]}, "phone": "+12123713536", "display_phone": "(212) 371-3536", "distance": 247.31596906700165}, {"id": "V3USzFEGhuoXez4G2Rk11A", "alias": "tavola-new-york", "name": "Tavola", "image_url": "https://s3-media1.fl.yelpcdn.com/bphoto/HhhlKQchXV9dhvgGgNH1Bw/o.jpg", "is_closed": false, "url": "https://www.yelp.com/biz/tavola-new-york?adjust_creative=-dNcS0Zb3UiJXBpAhH8gvw&utm_campaign=yelp_api_v3&utm_medium=api_v3_business_search&utm_source=-dNcS0Zb3UiJXBpAhH8gvw", "review_count": 1348, "categories": [{"alias": "italian", "title": "Italian"}, {"alias": "pizza", "title": "Pizza"}, {"alias": "wine_bars", "title": "Wine Bars"}], "rating": 4.0, "coordinates": {"latitude": 40.755403, "longitude": -73.994516}, "transactions": ["delivery", "restaurant_reservation"], "price": "$$", "location": {"address1": "488 9th Ave", "address2": "", "address3": "", "city": "New York", "zip_code": "10018", "country": "US", "state": "NY", "display_address": ["488 9th Ave", "New York, NY 10018"]}, "phone": "+12122731181", "display_phone": "(212) 273-1181", "distance": 2142.271898883068}, {"id": "5TX0X8w5ssIACU_pnBEq6g", "alias": "tonys-di-napoli-new-york-4", "name": "Tony's Di Napoli", "image_url": "https://s3-media2.fl.yelpcdn.com/bphoto/oiswc3JuBx8TGXROs56aMA/o.jpg", "is_closed": false, "url": "https://www.yelp.com/biz/tonys-di-napoli-new-york-4?adjust_creative=-dNcS0Zb3UiJXBpAhH8gvw&utm_campaign=yelp_api_v3&utm_medium=api_v3_business_search&utm_source=-dNcS0Zb3UiJXBpAhH8gvw", "review_count": 2611, "categories": [{"alias": "italian", "title": "Italian"}, {"alias": "wine_bars", "title": "Wine Bars"}, {"alias": "seafood", "title": "Seafood"}], "rating": 4.0, "coordinates": {"latitude": 40.75641, "longitude": -73.98547}, "transactions": ["pickup", "delivery"], "price": "$$$", "location": {"address1": "147 W 43rd St", "address2": "", "address3": "", "city": "New York", "zip_code": "10036", "country": "US", "state": "NY", "display_address": ["147 W 43rd St", "New York, NY 10036"]}, "phone": "+12122210100", "display_phone": "(212) 221-0100", "distance": 1369.1083702941962}, {"id": "WG639VkTjmK5dzydd1BBJA", "alias": "rubirosa-new-york-2", "name": "Rubirosa", "image_url": "https://s3-media3.fl.yelpcdn.com/bphoto/l0Phrnhhj78RFiDhLIOUyQ/o.jpg", "is_closed": false, "url": "https://www.yelp.com/biz/rubirosa-new-york-2?adjust_creative=-dNcS0Zb3UiJXBpAhH8gvw&utm_campaign=yelp_api_v3&utm_medium=api_v3_business_search&utm_source=-dNcS0Zb3UiJXBpAhH8gvw", "review_count": 3173, "categories": [{"alias": "italian", "title": "Italian"}, {"alias": "pizza", "title": "Pizza"}], "rating": 4.5, "coordinates": {"latitude": 40.722766, "longitude": -73.996233}, "transactions": ["pickup"], "price": "$$", "location": {"address1": "235 Mulberry St", "address2": "", "address3": "", "city": "New York", "zip_code": "10012", "country": "US", "state": "NY", "display_address": ["235 Mulberry St", "New York, NY 10012"]}, "phone": "+12129650500", "display_phone": "(212) 965-0500", "distance": 4629.739253785127}, {"id": "h37t9rA06Sr4EetJjKrfzw", "alias": "don-angie-new-york", "name": "Don Angie", "image_url": "https://s3-media2.fl.yelpcdn.com/bphoto/onJX6_vaMPHXUqIbMrq79A/o.jpg", "is_closed": false, "url": "https://www.yelp.com/biz/don-angie-new-york?adjust_creative=-dNcS0Zb3UiJXBpAhH8gvw&utm_campaign=yelp_api_v3&utm_medium=api_v3_business_search&utm_source=-dNcS0Zb3UiJXBpAhH8gvw", "review_count": 781, "categories": [{"alias": "italian", "title": "Italian"}, {"alias": "newamerican", "title": "American (New)"}], "rating": 4.5, "coordinates": {"latitude": 40.73778, "longitude": -74.00197}, "transactions": ["delivery"], "price": "$$$", "location": {"address1": "103 Greenwich Ave", "address2": "", "address3": null, "city": "New York", "zip_code": "10014", "country": "US", "state": "NY", "display_address": ["103 Greenwich Ave", "New York, NY 10014"]}, "phone": "+12128898884", "display_phone": "(212) 889-8884", "distance": 3623.913624097544}, {"id": "JFmWkslCGTeuwC_Yews4-Q", "alias": "carlotto-new-york", "name": "Carlotto", "image_url": "https://s3-media2.fl.yelpcdn.com/bphoto/_wZvTt_s-LtgDfJfMdzJ_g/o.jpg", "is_closed": false, "url": "https://www.yelp.com/biz/carlotto-new-york?adjust_creative=-dNcS0Zb3UiJXBpAhH8gvw&utm_campaign=yelp_api_v3&utm_medium=api_v3_business_search&utm_source=-dNcS0Zb3UiJXBpAhH8gvw", "review_count": 30, "categories": [{"alias": "italian", "title": "Italian"}], "rating": 4.5, "coordinates": {"latitude": 40.7375, "longitude": -73.98782}, "transactions": [], "location": {"address1": "100 E 19th St", "address2": "", "address3": null, "city": "New York", "zip_code": "10003", "country": "US", "state": "NY", "display_address": ["100 E 19th St", "New York, NY 10003"]}, "phone": "+12122091054", "display_phone": "(212) 209-1054", "distance": 2856.7609933820104}, {"id": "JLpEKUYAtzBRQwsUL3RPIA", "alias": "il-corso-new-york", "name": "Il Corso", "image_url": "https://s3-media1.fl.yelpcdn.com/bphoto/Kaq43p0ueSp872npX-zITw/o.jpg", "is_closed": false, "url": "https://www.yelp.com/biz/il-corso-new-york?adjust_creative=-dNcS0Zb3UiJXBpAhH8gvw&utm_campaign=yelp_api_v3&utm_medium=api_v3_business_search&utm_source=-dNcS0Zb3UiJXBpAhH8gvw", "review_count": 446, "categories": [{"alias": "italian", "title": "Italian"}, {"alias": "wine_bars", "title": "Wine Bars"}], "rating": 4.5, "coordinates": {"latitude": 40.762441, "longitude": -73.977206}, "transactions": ["delivery"], "price": "$$$", "location": {"address1": "54 W 55th St", "address2": null, "address3": "", "city": "New York", "zip_code": "10019", "country": "US", "state": "NY", "display_address": ["54 W 55th St", "New York, NY 10019"]}, "phone": "+12129571500", "display_phone": "(212) 957-1500", "distance": 737.8116222847772}, {"id": "yB4ziqFM_7V8JxJas7CHfA", "alias": "ulivo-new-york-2", "name": "Ulivo", "image_url": "https://s3-media4.fl.yelpcdn.com/bphoto/D5GPvFhIQCujw9dX5zQ9sw/o.jpg", "is_closed": false, "url": "https://www.yelp.com/biz/ulivo-new-york-2?adjust_creative=-dNcS0Zb3UiJXBpAhH8gvw&utm_campaign=yelp_api_v3&utm_medium=api_v3_business_search&utm_source=-dNcS0Zb3UiJXBpAhH8gvw", "review_count": 380, "categories": [{"alias": "italian", "title": "Italian"}, {"alias": "cocktailbars", "title": "Cocktail Bars"}], "rating": 4.0, "coordinates": {"latitude": 40.7447371960713, "longitude": -73.9880339428782}, "transactions": ["pickup", "delivery"], "price": "$$", "location": {"address1": "4 W 28th St", "address2": "", "address3": "", "city": "New York", "zip_code": "10001", "country": "US", "state": "NY", "display_address": ["4 W 28th St", "New York, NY 10001"]}, "phone": "+12126848000", "display_phone": "(212) 684-8000", "distance": 2234.9877303322496}, {"id": "hkooeEkd3oPsLD6JJrYpjA", "alias": "caf\u00e9-luce-new-york", "name": "Caf\u00e9 Luce", "image_url": "https://s3-media2.fl.yelpcdn.com/bphoto/d5mhlvOqWLPdc_nl_KLaLg/o.jpg", "is_closed": false, "url": "https://www.yelp.com/biz/caf%C3%A9-luce-new-york?adjust_creative=-dNcS0Zb3UiJXBpAhH8gvw&utm_campaign=yelp_api_v3&utm_medium=api_v3_business_search&utm_source=-dNcS0Zb3UiJXBpAhH8gvw", "review_count": 147, "categories": [{"alias": "italian", "title": "Italian"}, {"alias": "pastashops", "title": "Pasta Shops"}, {"alias": "wine_bars", "title": "Wine Bars"}], "rating": 4.5, "coordinates": {"latitude": 40.757323, "longitude": -73.967928}, "transactions": ["pickup", "delivery", "restaurant_reservation"], "price": "$$", "location": {"address1": "235 E 53rd St", "address2": null, "address3": "", "city": "New York", "zip_code": "10022", "country": "US", "state": "NY", "display_address": ["235 E 53rd St", "New York, NY 10022"]}, "phone": "+16465902777", "display_phone": "(646) 590-2777", "distance": 203.7309179500286}, {"id": "Z-QmxQZAJEy5GXqA82Bemw", "alias": "da-toscano-new-york", "name": "Da Toscano", "image_url": "https://s3-media2.fl.yelpcdn.com/bphoto/hKVmraMl79AlKfYBGp8ofA/o.jpg", "is_closed": false, "url": "https://www.yelp.com/biz/da-toscano-new-york?adjust_creative=-dNcS0Zb3UiJXBpAhH8gvw&utm_campaign=yelp_api_v3&utm_medium=api_v3_business_search&utm_source=-dNcS0Zb3UiJXBpAhH8gvw", "review_count": 143, "categories": [{"alias": "italian", "title": "Italian"}], "rating": 4.5, "coordinates": {"latitude": 40.730508, "longitude": -74.001238}, "transactions": ["pickup", "delivery"], "location": {"address1": "24 Minetta Ln", "address2": "", "address3": null, "city": "New York", "zip_code": "10012", "country": "US", "state": "NY", "display_address": ["24 Minetta Ln", "New York, NY 10012"]}, "phone": "+12126064054", "display_phone": "(212) 606-4054", "distance": 4133.17711897032}, {"id": "rpVX-o82EEOX8ZDnM28a_Q", "alias": "bistango-new-york-8", "name": "Bistango", "image_url": "https://s3-media4.fl.yelpcdn.com/bphoto/wHZfIVXjZqWPOa3qnXv7Fw/o.jpg", "is_closed": false, "url": "https://www.yelp.com/biz/bistango-new-york-8?adjust_creative=-dNcS0Zb3UiJXBpAhH8gvw&utm_campaign=yelp_api_v3&utm_medium=api_v3_business_search&utm_source=-dNcS0Zb3UiJXBpAhH8gvw", "review_count": 356, "categories": [{"alias": "italian", "title": "Italian"}, {"alias": "gluten_free", "title": "Gluten-Free"}, {"alias": "cocktailbars", "title": "Cocktail Bars"}], "rating": 4.0, "coordinates": {"latitude": 40.75628, "longitude": -73.97144}, "transactions": ["pickup", "delivery", "restaurant_reservation"], "price": "$$", "location": {"address1": "145 E 50th St", "address2": "", "address3": "The Kimberly Hotel", "city": "New York", "zip_code": "10022", "country": "US", "state": "NY", "display_address": ["145 E 50th St", "The Kimberly Hotel", "New York, NY 10022"]}, "phone": "+12128884121", "display_phone": "(212) 888-4121", "distance": 347.5579128517892}, {"id": "RXCCofQw1EjTcSN0ZeXfRA", "alias": "risotteria-melotti-nyc-new-york-3", "name": "Risotteria Melotti NYC", "image_url": "https://s3-media3.fl.yelpcdn.com/bphoto/qZ4MldeNv60P9v8jzO_2lQ/o.jpg", "is_closed": false, "url": "https://www.yelp.com/biz/risotteria-melotti-nyc-new-york-3?adjust_creative=-dNcS0Zb3UiJXBpAhH8gvw&utm_campaign=yelp_api_v3&utm_medium=api_v3_business_search&utm_source=-dNcS0Zb3UiJXBpAhH8gvw", "review_count": 394, "categories": [{"alias": "italian", "title": "Italian"}, {"alias": "gluten_free", "title": "Gluten-Free"}, {"alias": "breakfast_brunch", "title": "Breakfast & Brunch"}], "rating": 4.5, "coordinates": {"latitude": 40.726673363853, "longitude": -73.9880919456482}, "transactions": ["pickup", "delivery"], "price": "$$", "location": {"address1": "309 E 5th St", "address2": "", "address3": "", "city": "New York", "zip_code": "10003", "country": "US", "state": "NY", "display_address": ["309 E 5th St", "New York, NY 10003"]}, "phone": "+16467558939", "display_phone": "(646) 755-8939", "distance": 3936.327136141662}, {"id": "Ve6GVzzJpR5QIIPdcn6ViQ", "alias": "mercato-new-york", "name": "Mercato", "image_url": "https://s3-media3.fl.yelpcdn.com/bphoto/LTDeQgRvclFWi5cfXOr3qg/o.jpg", "is_closed": false, "url": "https://www.yelp.com/biz/mercato-new-york?adjust_creative=-dNcS0Zb3UiJXBpAhH8gvw&utm_campaign=yelp_api_v3&utm_medium=api_v3_business_search&utm_source=-dNcS0Zb3UiJXBpAhH8gvw", "review_count": 1052, "categories": [{"alias": "italian", "title": "Italian"}, {"alias": "cocktailbars", "title": "Cocktail Bars"}, {"alias": "desserts", "title": "Desserts"}], "rating": 4.0, "coordinates": {"latitude": 40.75619, "longitude": -73.9937}, "transactions": ["pickup", "delivery"], "price": "$$$", "location": {"address1": "352 W 39th St", "address2": "", "address3": "", "city": "New York", "zip_code": "10018", "country": "US", "state": "NY", "display_address": ["352 W 39th St", "New York, NY 10018"]}, "phone": "+12126432000", "display_phone": "(212) 643-2000", "distance": 2056.8132711305157}, {"id": "LXdblKc5g1Dp17xiV-Am1w", "alias": "trattoria-dellarte-new-york", "name": "Trattoria Dell'Arte", "image_url": "https://s3-media4.fl.yelpcdn.com/bphoto/YLzbKuDi2qwkFk_oBTo9BA/o.jpg", "is_closed": false, "url": "https://www.yelp.com/biz/trattoria-dellarte-new-york?adjust_creative=-dNcS0Zb3UiJXBpAhH8gvw&utm_campaign=yelp_api_v3&utm_medium=api_v3_business_search&utm_source=-dNcS0Zb3UiJXBpAhH8gvw", "review_count": 1203, "categories": [{"alias": "italian", "title": "Italian"}], "rating": 4.0, "coordinates": {"latitude": 40.76545990643915, "longitude": -73.98053136970677}, "transactions": ["pickup", "delivery"], "price": "$$$", "location": {"address1": "900 7th Ave", "address2": "", "address3": "", "city": "New York", "zip_code": "10019", "country": "US", "state": "NY", "display_address": ["900 7th Ave", "New York, NY 10019"]}, "phone": "+12122459800", "display_phone": "(212) 245-9800", "distance": 1157.6217394043324}, {"id": "z7H9ApIGopnDnQaglnPTzg", "alias": "allora-ristorante-new-york-2", "name": "Allora Ristorante", "image_url": "https://s3-media1.fl.yelpcdn.com/bphoto/PFMCcufxzzNRQ6JOVX5jFQ/o.jpg", "is_closed": false, "url": "https://www.yelp.com/biz/allora-ristorante-new-york-2?adjust_creative=-dNcS0Zb3UiJXBpAhH8gvw&utm_campaign=yelp_api_v3&utm_medium=api_v3_business_search&utm_source=-dNcS0Zb3UiJXBpAhH8gvw", "review_count": 793, "categories": [{"alias": "italian", "title": "Italian"}, {"alias": "bars", "title": "Bars"}], "rating": 4.5, "coordinates": {"latitude": 40.75433, "longitude": -73.97277}, "transactions": ["delivery", "restaurant_reservation"], "price": "$$$", "location": {"address1": "145 E 47th St", "address2": null, "address3": "", "city": "New York", "zip_code": "10017", "country": "US", "state": "NY", "display_address": ["145 E 47th St", "New York, NY 10017"]}, "phone": "+12127549800", "display_phone": "(212) 754-9800", "distance": 589.0857047204463}, {"id": "8oO6j7AlnAbMSJs9Oj9GIw", "alias": "osteria-delbianco-new-york", "name": "Osteria Delbianco", "image_url": "https://s3-media2.fl.yelpcdn.com/bphoto/Nnyph9ukvpcFic7X11Pl1w/o.jpg", "is_closed": false, "url": "https://www.yelp.com/biz/osteria-delbianco-new-york?adjust_creative=-dNcS0Zb3UiJXBpAhH8gvw&utm_campaign=yelp_api_v3&utm_medium=api_v3_business_search&utm_source=-dNcS0Zb3UiJXBpAhH8gvw", "review_count": 197, "categories": [{"alias": "italian", "title": "Italian"}], "rating": 4.5, "coordinates": {"latitude": 40.7573689002, "longitude": -73.9764462233}, "transactions": ["pickup", "delivery", "restaurant_reservation"], "price": "$$$", "location": {"address1": "22 East 49th St", "address2": null, "address3": "", "city": "New York", "zip_code": "10017", "country": "US", "state": "NY", "display_address": ["22 East 49th St", "New York, NY 10017"]}, "phone": "+12128385972", "display_phone": "(212) 838-5972", "distance": 612.6667155016465}, {"id": "AUifp6IDKzmorCM6vY2fug", "alias": "pepe-giallo-new-york", "name": "Pepe Giallo", "image_url": "https://s3-media3.fl.yelpcdn.com/bphoto/0hZOcrrtCTOMUnlKHU5gfQ/o.jpg", "is_closed": false, "url": "https://www.yelp.com/biz/pepe-giallo-new-york?adjust_creative=-dNcS0Zb3UiJXBpAhH8gvw&utm_campaign=yelp_api_v3&utm_medium=api_v3_business_search&utm_source=-dNcS0Zb3UiJXBpAhH8gvw", "review_count": 789, "categories": [{"alias": "italian", "title": "Italian"}], "rating": 4.0, "coordinates": {"latitude": 40.7468940064083, "longitude": -74.0049896784992}, "transactions": ["pickup", "delivery"], "price": "$$", "location": {"address1": "195 10th Ave", "address2": null, "address3": "", "city": "New York", "zip_code": "10011", "country": "US", "state": "NY", "display_address": ["195 10th Ave", "New York, NY 10011"]}, "phone": "+12122426055", "display_phone": "(212) 242-6055", "distance": 3280.8733316329776}, {"id": "MOwB9YYd-Ko6nVgSB-ltQw", "alias": "briciola-new-york", "name": "Briciola", "image_url": "https://s3-media3.fl.yelpcdn.com/bphoto/MCi7eJnHST0CPI0sG_x-dw/o.jpg", "is_closed": false, "url": "https://www.yelp.com/biz/briciola-new-york?adjust_creative=-dNcS0Zb3UiJXBpAhH8gvw&utm_campaign=yelp_api_v3&utm_medium=api_v3_business_search&utm_source=-dNcS0Zb3UiJXBpAhH8gvw", "review_count": 1013, "categories": [{"alias": "italian", "title": "Italian"}, {"alias": "wine_bars", "title": "Wine Bars"}, {"alias": "tapas", "title": "Tapas Bars"}], "rating": 4.0, "coordinates": {"latitude": 40.7637997047278, "longitude": -73.9880919456482}, "transactions": ["pickup", "delivery"], "price": "$$", "location": {"address1": "370 W 51st St", "address2": "", "address3": "", "city": "New York", "zip_code": "10019", "country": "US", "state": "NY", "display_address": ["370 W 51st St", "New York, NY 10019"]}, "phone": "+16466785763", "display_phone": "(646) 678-5763", "distance": 1642.2357763465468}, {"id": "E48WbksxAk19a8vjJRVIVQ", "alias": "ramerino-italian-prime-new-york", "name": "Ramerino Italian Prime", "image_url": "https://s3-media2.fl.yelpcdn.com/bphoto/z8dD02Ff78hQfatQEM7M-Q/o.jpg", "is_closed": false, "url": "https://www.yelp.com/biz/ramerino-italian-prime-new-york?adjust_creative=-dNcS0Zb3UiJXBpAhH8gvw&utm_campaign=yelp_api_v3&utm_medium=api_v3_business_search&utm_source=-dNcS0Zb3UiJXBpAhH8gvw", "review_count": 75, "categories": [{"alias": "italian", "title": "Italian"}, {"alias": "wine_bars", "title": "Wine Bars"}, {"alias": "seafood", "title": "Seafood"}], "rating": 4.5, "coordinates": {"latitude": 40.75107, "longitude": -73.98135}, "transactions": ["restaurant_reservation"], "price": "$$$", "location": {"address1": "16 E 39th St", "address2": null, "address3": "", "city": "New York", "zip_code": "10016", "country": "US", "state": "NY", "display_address": ["16 E 39th St", "New York, NY 10016"]}, "phone": "+16468807885", "display_phone": "(646) 880-7885", "distance": 1358.249942618913}, {"id": "hveuXFWS53S1wWpaK0nokw", "alias": "lupetto-new-york", "name": "Lupetto", "image_url": "https://s3-media3.fl.yelpcdn.com/bphoto/z1exZq7lZOp4qNQJynW-gA/o.jpg", "is_closed": false, "url": "https://www.yelp.com/biz/lupetto-new-york?adjust_creative=-dNcS0Zb3UiJXBpAhH8gvw&utm_campaign=yelp_api_v3&utm_medium=api_v3_business_search&utm_source=-dNcS0Zb3UiJXBpAhH8gvw", "review_count": 4, "categories": [{"alias": "italian", "title": "Italian"}, {"alias": "pizza", "title": "Pizza"}, {"alias": "cocktailbars", "title": "Cocktail Bars"}], "rating": 5.0, "coordinates": {"latitude": 40.74332, "longitude": -73.98924}, "transactions": [], "location": {"address1": "1123 Broadway", "address2": "", "address3": null, "city": "New York", "zip_code": "10010", "country": "US", "state": "NY", "display_address": ["1123 Broadway", "New York, NY 10010"]}, "phone": "", "display_phone": "", "distance": 2418.021139006982}, {"id": "YKLvheNuhQ3083AEgx0V2Q", "alias": "casa-soglia-new-york", "name": "Casa Soglia", "image_url": "https://s3-media4.fl.yelpcdn.com/bphoto/-8sTbgF6YSoh21pnN5J7iw/o.jpg", "is_closed": false, "url": "https://www.yelp.com/biz/casa-soglia-new-york?adjust_creative=-dNcS0Zb3UiJXBpAhH8gvw&utm_campaign=yelp_api_v3&utm_medium=api_v3_business_search&utm_source=-dNcS0Zb3UiJXBpAhH8gvw", "review_count": 13, "categories": [{"alias": "italian", "title": "Italian"}, {"alias": "venues", "title": "Venues & Event Spaces"}], "rating": 5.0, "coordinates": {"latitude": 40.74215, "longitude": -73.98472}, "transactions": [], "location": {"address1": "365 Park Ave S", "address2": null, "address3": "", "city": "New York", "zip_code": "10016", "country": "US", "state": "NY", "display_address": ["365 Park Ave S", "New York, NY 10016"]}, "phone": "+12125329100", "display_phone": "(212) 532-9100", "distance": 2283.274190516794}, {"id": "7cjT33LfYSk7vrRdEaSr4w", "alias": "angeletto-restaurant-new-york", "name": "Angeletto Restaurant", "image_url": "https://s3-media1.fl.yelpcdn.com/bphoto/T8oGi2DiJbAQJOCI3jfMQQ/o.jpg", "is_closed": false, "url": "https://www.yelp.com/biz/angeletto-restaurant-new-york?adjust_creative=-dNcS0Zb3UiJXBpAhH8gvw&utm_campaign=yelp_api_v3&utm_medium=api_v3_business_search&utm_source=-dNcS0Zb3UiJXBpAhH8gvw", "review_count": 299, "categories": [{"alias": "italian", "title": "Italian"}, {"alias": "cocktailbars", "title": "Cocktail Bars"}], "rating": 4.5, "coordinates": {"latitude": 40.753188, "longitude": -73.969365}, "transactions": ["pickup", "delivery"], "price": "$$$", "location": {"address1": "890 2nd Ave", "address2": "", "address3": null, "city": "New York", "zip_code": "10017", "country": "US", "state": "NY", "display_address": ["890 2nd Ave", "New York, NY 10017"]}, "phone": "+12122351227", "display_phone": "(212) 235-1227", "distance": 665.9232942625828}, {"id": "yQ7K4uFnxXxpBVbnOSR8kA", "alias": "polpette-71-new-york", "name": "Polpette 71", "image_url": "https://s3-media1.fl.yelpcdn.com/bphoto/6_GgDJkM2grSVfezrxu9RA/o.jpg", "is_closed": false, "url": "https://www.yelp.com/biz/polpette-71-new-york?adjust_creative=-dNcS0Zb3UiJXBpAhH8gvw&utm_campaign=yelp_api_v3&utm_medium=api_v3_business_search&utm_source=-dNcS0Zb3UiJXBpAhH8gvw", "review_count": 255, "categories": [{"alias": "italian", "title": "Italian"}], "rating": 4.0, "coordinates": {"latitude": 40.77668, "longitude": -73.97888}, "transactions": ["pickup", "delivery"], "price": "$$", "location": {"address1": "71 West 71st St", "address2": "", "address3": null, "city": "New York", "zip_code": "10023", "country": "US", "state": "NY", "display_address": ["71 West 71st St", "New York, NY 10023"]}, "phone": "+12128751512", "display_phone": "(212) 875-1512", "distance": 2097.217944466453}, {"id": "OCTiJwvjoK81WoDwsTkFvA", "alias": "paesano-of-mulberry-street-new-york", "name": "Paesano of Mulberry Street", "image_url": "https://s3-media2.fl.yelpcdn.com/bphoto/yN9ARCE3LF6u9E0yN5WpIw/o.jpg", "is_closed": false, "url": "https://www.yelp.com/biz/paesano-of-mulberry-street-new-york?adjust_creative=-dNcS0Zb3UiJXBpAhH8gvw&utm_campaign=yelp_api_v3&utm_medium=api_v3_business_search&utm_source=-dNcS0Zb3UiJXBpAhH8gvw", "review_count": 1420, "categories": [{"alias": "italian", "title": "Italian"}, {"alias": "salad", "title": "Salad"}, {"alias": "seafood", "title": "Seafood"}], "rating": 4.0, "coordinates": {"latitude": 40.718554, "longitude": -73.997447}, "transactions": ["pickup", "delivery", "restaurant_reservation"], "price": "$$", "location": {"address1": "136 Mulberry St", "address2": "", "address3": "", "city": "New York", "zip_code": "10013", "country": "US", "state": "NY", "display_address": ["136 Mulberry St", "New York, NY 10013"]}, "phone": "+12129651188", "display_phone": "(212) 965-1188", "distance": 5090.804604920212}, {"id": "LkV96_buOU_n0br4SBO57w", "alias": "ci-siamo-new-york-5", "name": "Ci Siamo", "image_url": "https://s3-media3.fl.yelpcdn.com/bphoto/Sc2AdduIiIcN7U36j_wstQ/o.jpg", "is_closed": false, "url": "https://www.yelp.com/biz/ci-siamo-new-york-5?adjust_creative=-dNcS0Zb3UiJXBpAhH8gvw&utm_campaign=yelp_api_v3&utm_medium=api_v3_business_search&utm_source=-dNcS0Zb3UiJXBpAhH8gvw", "review_count": 368, "categories": [{"alias": "italian", "title": "Italian"}, {"alias": "bars", "title": "Bars"}, {"alias": "pizza", "title": "Pizza"}], "rating": 4.5, "coordinates": {"latitude": 40.75240549384363, "longitude": -73.9982864846782}, "transactions": [], "price": "$$$", "location": {"address1": "440 West 33rd St", "address2": "Ste 100", "address3": "", "city": "New York", "zip_code": "10001", "country": "US", "state": "NY", "display_address": ["440 West 33rd St", "Ste 100", "New York, NY 10001"]}, "phone": "+12122196559", "display_phone": "(212) 219-6559", "distance": 2532.878983859273}, {"id": "qBGKigOGn_flCx1apxPzlA", "alias": "piccola-cucina-osteria-new-york-2", "name": "Piccola Cucina Osteria", "image_url": "https://s3-media3.fl.yelpcdn.com/bphoto/NpARz4CQKQWq5kWzO10jxw/o.jpg", "is_closed": false, "url": "https://www.yelp.com/biz/piccola-cucina-osteria-new-york-2?adjust_creative=-dNcS0Zb3UiJXBpAhH8gvw&utm_campaign=yelp_api_v3&utm_medium=api_v3_business_search&utm_source=-dNcS0Zb3UiJXBpAhH8gvw", "review_count": 797, "categories": [{"alias": "italian", "title": "Italian"}], "rating": 4.5, "coordinates": {"latitude": 40.72506, "longitude": -74.00322}, "transactions": ["pickup", "delivery"], "price": "$$", "location": {"address1": "196 Spring St", "address2": "", "address3": "", "city": "New York", "zip_code": "10012", "country": "US", "state": "NY", "display_address": ["196 Spring St", "New York, NY 10012"]}, "phone": "+16464787488", "display_phone": "(646) 478-7488", "distance": 4740.9576452908095}, {"id": "3qIISjUYn1tbqHXi7nCLXg", "alias": "sofia-wine-bar-new-york", "name": "Sofia Wine Bar", "image_url": "https://s3-media2.fl.yelpcdn.com/bphoto/T7i7mqDiokMLMP9YFapfMw/o.jpg", "is_closed": false, "url": "https://www.yelp.com/biz/sofia-wine-bar-new-york?adjust_creative=-dNcS0Zb3UiJXBpAhH8gvw&utm_campaign=yelp_api_v3&utm_medium=api_v3_business_search&utm_source=-dNcS0Zb3UiJXBpAhH8gvw", "review_count": 747, "categories": [{"alias": "italian", "title": "Italian"}, {"alias": "wine_bars", "title": "Wine Bars"}], "rating": 4.0, "coordinates": {"latitude": 40.75502, "longitude": -73.96913}, "transactions": ["pickup", "delivery"], "price": "$$$", "location": {"address1": "242 E 50th St", "address2": null, "address3": "", "city": "New York", "zip_code": "10022", "country": "US", "state": "NY", "display_address": ["242 E 50th St", "New York, NY 10022"]}, "phone": "+12128888660", "display_phone": "(212) 888-8660", "distance": 465.1610575521021}, {"id": "vVVmHacu2YAxKfpIjhfd1g", "alias": "norma-new-york-5", "name": "Norma", "image_url": "https://s3-media3.fl.yelpcdn.com/bphoto/qJKt5l2xSBUKOFRA6UOqVg/o.jpg", "is_closed": false, "url": "https://www.yelp.com/biz/norma-new-york-5?adjust_creative=-dNcS0Zb3UiJXBpAhH8gvw&utm_campaign=yelp_api_v3&utm_medium=api_v3_business_search&utm_source=-dNcS0Zb3UiJXBpAhH8gvw", "review_count": 622, "categories": [{"alias": "italian", "title": "Italian"}, {"alias": "pizza", "title": "Pizza"}], "rating": 4.5, "coordinates": {"latitude": 40.743553, "longitude": -73.980026}, "transactions": ["pickup", "delivery"], "price": "$$", "location": {"address1": "438 3rd Ave", "address2": null, "address3": "", "city": "New York", "zip_code": "10016", "country": "US", "state": "NY", "display_address": ["438 3rd Ave", "New York, NY 10016"]}, "phone": "+12128890600", "display_phone": "(212) 889-0600", "distance": 1942.2913842319626}, {"id": "HiNUBUR1hFwScd_OvVLQAg", "alias": "la-pecora-bianca-new-york", "name": "La Pecora Bianca", "image_url": "https://s3-media1.fl.yelpcdn.com/bphoto/pXoM8IbmiWix_LZSNqYGqw/o.jpg", "is_closed": false, "url": "https://www.yelp.com/biz/la-pecora-bianca-new-york?adjust_creative=-dNcS0Zb3UiJXBpAhH8gvw&utm_campaign=yelp_api_v3&utm_medium=api_v3_business_search&utm_source=-dNcS0Zb3UiJXBpAhH8gvw", "review_count": 1079, "categories": [{"alias": "italian", "title": "Italian"}], "rating": 4.0, "coordinates": {"latitude": 40.74358, "longitude": -73.9892}, "transactions": ["pickup"], "price": "$$$", "location": {"address1": "1133 Broadway", "address2": "", "address3": "", "city": "New York", "zip_code": "10010", "country": "US", "state": "NY", "display_address": ["1133 Broadway", "New York, NY 10010"]}, "phone": "+12124989696", "display_phone": "(212) 498-9696", "distance": 2388.96519595075}, {"id": "faukkggAc_tuJ4THYlf4fg", "alias": "la-masseria-new-york-3", "name": "La Masseria", "image_url": "https://s3-media4.fl.yelpcdn.com/bphoto/uVk-qS1ssZ64EVkMcV4ocA/o.jpg", "is_closed": false, "url": "https://www.yelp.com/biz/la-masseria-new-york-3?adjust_creative=-dNcS0Zb3UiJXBpAhH8gvw&utm_campaign=yelp_api_v3&utm_medium=api_v3_business_search&utm_source=-dNcS0Zb3UiJXBpAhH8gvw", "review_count": 720, "categories": [{"alias": "italian", "title": "Italian"}], "rating": 4.0, "coordinates": {"latitude": 40.760868632784, "longitude": -73.986348802868}, "transactions": ["pickup", "delivery"], "price": "$$$", "location": {"address1": "235 W 48th St", "address2": "", "address3": "", "city": "New York", "zip_code": "10036", "country": "US", "state": "NY", "display_address": ["235 W 48th St", "New York, NY 10036"]}, "phone": "+12125822111", "display_phone": "(212) 582-2111", "distance": 1425.3531912052438}, {"id": "LdWyeeV8DuYINKVTghFwrg", "alias": "canaletto-restaurant-new-york", "name": "Canaletto Restaurant", "image_url": "https://s3-media2.fl.yelpcdn.com/bphoto/fyUzQI1b4YV-BHOnE1GrLw/o.jpg", "is_closed": false, "url": "https://www.yelp.com/biz/canaletto-restaurant-new-york?adjust_creative=-dNcS0Zb3UiJXBpAhH8gvw&utm_campaign=yelp_api_v3&utm_medium=api_v3_business_search&utm_source=-dNcS0Zb3UiJXBpAhH8gvw", "review_count": 86, "categories": [{"alias": "italian", "title": "Italian"}], "rating": 4.0, "coordinates": {"latitude": 40.76174, "longitude": -73.96569}, "transactions": ["delivery"], "price": "$$$", "location": {"address1": "208 E 60th St", "address2": "", "address3": "", "city": "New York", "zip_code": "10022", "country": "US", "state": "NY", "display_address": ["208 E 60th St", "New York, NY 10022"]}, "phone": "+12123179192", "display_phone": "(212) 317-9192", "distance": 438.84599639541653}, {"id": "Q1_UvNyONsaVS_VC1mD9Dw", "alias": "osteria-cotta-new-york", "name": "Osteria Cotta", "image_url": "https://s3-media1.fl.yelpcdn.com/bphoto/UVxuXoW83Rf4VChKcZZlJA/o.jpg", "is_closed": false, "url": "https://www.yelp.com/biz/osteria-cotta-new-york?adjust_creative=-dNcS0Zb3UiJXBpAhH8gvw&utm_campaign=yelp_api_v3&utm_medium=api_v3_business_search&utm_source=-dNcS0Zb3UiJXBpAhH8gvw", "review_count": 1072, "categories": [{"alias": "italian", "title": "Italian"}, {"alias": "wine_bars", "title": "Wine Bars"}, {"alias": "venues", "title": "Venues & Event Spaces"}], "rating": 4.0, "coordinates": {"latitude": 40.78554, "longitude": -73.97263}, "transactions": ["pickup", "delivery"], "price": "$$", "location": {"address1": "513 Columbus Ave", "address2": "", "address3": "", "city": "New York", "zip_code": "10024", "country": "US", "state": "NY", "display_address": ["513 Columbus Ave", "New York, NY 10024"]}, "phone": "+12128738500", "display_phone": "(212) 873-8500", "distance": 2940.883473178075}, {"id": "5zcZZJhriNQ2R92r9drxug", "alias": "il-postino-new-york-3", "name": "Il Postino", "image_url": "https://s3-media1.fl.yelpcdn.com/bphoto/Qxq7MWU1czjOKHZlc-S7Fg/o.jpg", "is_closed": false, "url": "https://www.yelp.com/biz/il-postino-new-york-3?adjust_creative=-dNcS0Zb3UiJXBpAhH8gvw&utm_campaign=yelp_api_v3&utm_medium=api_v3_business_search&utm_source=-dNcS0Zb3UiJXBpAhH8gvw", "review_count": 153, "categories": [{"alias": "italian", "title": "Italian"}, {"alias": "seafood", "title": "Seafood"}, {"alias": "soup", "title": "Soup"}], "rating": 4.0, "coordinates": {"latitude": 40.763828, "longitude": -73.967516}, "transactions": ["pickup", "delivery"], "price": "$$$$", "location": {"address1": "133 E 61st St", "address2": null, "address3": "", "city": "New York", "zip_code": "10065", "country": "US", "state": "NY", "display_address": ["133 E 61st St", "New York, NY 10065"]}, "phone": "+12126880033", "display_phone": "(212) 688-0033", "distance": 541.672969727448}, {"id": "kIK1DBH6ODkSouhvz-4VWA", "alias": "il-tinello-new-york", "name": "Il Tinello", "image_url": "https://s3-media3.fl.yelpcdn.com/bphoto/Y_MsaVHWpN2mPCSWuRgkJA/o.jpg", "is_closed": false, "url": "https://www.yelp.com/biz/il-tinello-new-york?adjust_creative=-dNcS0Zb3UiJXBpAhH8gvw&utm_campaign=yelp_api_v3&utm_medium=api_v3_business_search&utm_source=-dNcS0Zb3UiJXBpAhH8gvw", "review_count": 47, "categories": [{"alias": "italian", "title": "Italian"}], "rating": 5.0, "coordinates": {"latitude": 40.75265874754987, "longitude": -73.97093351560888}, "transactions": ["pickup", "delivery"], "location": {"address1": "244 East 46th St", "address2": null, "address3": "", "city": "New York", "zip_code": "10017", "country": "US", "state": "NY", "display_address": ["244 East 46th St", "New York, NY 10017"]}, "phone": "+16466827284", "display_phone": "(646) 682-7284", "distance": 733.5344024245883}, {"id": "yZJbealagfujEkgesAl2hA", "alias": "lupa-new-york", "name": "Lupa", "image_url": "https://s3-media1.fl.yelpcdn.com/bphoto/0_EF0APVQ4X_bAqJF7zi6g/o.jpg", "is_closed": false, "url": "https://www.yelp.com/biz/lupa-new-york?adjust_creative=-dNcS0Zb3UiJXBpAhH8gvw&utm_campaign=yelp_api_v3&utm_medium=api_v3_business_search&utm_source=-dNcS0Zb3UiJXBpAhH8gvw", "review_count": 1737, "categories": [{"alias": "italian", "title": "Italian"}], "rating": 4.0, "coordinates": {"latitude": 40.7276, "longitude": -74.000045}, "transactions": ["pickup", "delivery"], "price": "$$$", "location": {"address1": "170 Thompson St", "address2": "", "address3": "", "city": "New York", "zip_code": "10012", "country": "US", "state": "NY", "display_address": ["170 Thompson St", "New York, NY 10012"]}, "phone": "+12129825089", "display_phone": "(212) 982-5089", "distance": 4344.848416586869}, {"id": "cl97uG2_QtiMBah-_s9w7g", "alias": "il-divo-new-york-2", "name": "Il Divo", "image_url": "https://s3-media2.fl.yelpcdn.com/bphoto/9mGH7lAECDN0SMNiciVWJg/o.jpg", "is_closed": false, "url": "https://www.yelp.com/biz/il-divo-new-york-2?adjust_creative=-dNcS0Zb3UiJXBpAhH8gvw&utm_campaign=yelp_api_v3&utm_medium=api_v3_business_search&utm_source=-dNcS0Zb3UiJXBpAhH8gvw", "review_count": 106, "categories": [{"alias": "italian", "title": "Italian"}], "rating": 4.5, "coordinates": {"latitude": 40.76816, "longitude": -73.959204}, "transactions": ["pickup", "delivery"], "location": {"address1": "1347 2nd Ave At E 71st St", "address2": "", "address3": null, "city": "New York", "zip_code": "10021", "country": "US", "state": "NY", "display_address": ["1347 2nd Ave At E 71st St", "New York, NY 10021"]}, "phone": "+12123808164", "display_phone": "(212) 380-8164", "distance": 1327.0239711808285}, {"id": "raqwXUBlnc0e8c7CYmxEJQ", "alias": "scarpetta-new-york", "name": "Scarpetta", "image_url": "https://s3-media1.fl.yelpcdn.com/bphoto/rSgDEOpd3JSl3llkpVu8tg/o.jpg", "is_closed": false, "url": "https://www.yelp.com/biz/scarpetta-new-york?adjust_creative=-dNcS0Zb3UiJXBpAhH8gvw&utm_campaign=yelp_api_v3&utm_medium=api_v3_business_search&utm_source=-dNcS0Zb3UiJXBpAhH8gvw", "review_count": 2272, "categories": [{"alias": "italian", "title": "Italian"}, {"alias": "bars", "title": "Bars"}, {"alias": "desserts", "title": "Desserts"}], "rating": 4.0, "coordinates": {"latitude": 40.744509, "longitude": -73.9856}, "transactions": ["delivery"], "price": "$$$", "location": {"address1": "88 Madison Ave", "address2": "", "address3": "", "city": "New York", "zip_code": "10016", "country": "US", "state": "NY", "display_address": ["88 Madison Ave", "New York, NY 10016"]}, "phone": "+12126910555", "display_phone": "(212) 691-0555", "distance": 2117.0063195846565}, {
    "id": "zYaYXpmlo6QdnaPwuxWHhQ",
    "alias": "l-osteria-new-york",
    "name": "L'Osteria",
    "image_url": "https://s3-media4.fl.yelpcdn.com/bphoto/_GF9XLfvXe1VoZ85UaD8Tg/o.jpg",
    "is_closed": false,
    "url": "https://www.yelp.com/biz/l-osteria-new-york?adjust_creative=-dNcS0Zb3UiJXBpAhH8gvw&utm_campaign=yelp_api_v3&utm_medium=api_v3_business_search&utm_source=-dNcS0Zb3UiJXBpAhH8gvw",
    "review_count": 37,
    "categories": [
        {
            "alias": "italian",
            "title": "Italian"
        },
        {
            "alias": "desserts",
            "title": "Desserts"
        },
        {
            "alias": "salad",
            "title": "Salad"
        }
    ],
    "rating": 4.5,
    "coordinates": {
        "latitude": 40.77704,
        "longitude": -73.95721
    },
    "transactions": [
        "pickup",
        "delivery"
    ],
    "location": {
        "address1": "1219 Lexington Ave",
        "address2": "",
        "address3": null,
        "city": "New York",
        "zip_code": "10028",
        "country": "US",
        "state": "NY",
        "display_address": [
            "1219 Lexington Ave",
            "New York, NY 10028"
        ]
    },
    "phone": "+16465246294",
    "display_phone": "(646) 524-6294",
    "distance": 2256.8167210081515
}], "total": 5600, "region": {"center": {"longitude": -73.96957397460938, "latitude": 40.75917470627005}}}

